timestamp,x,y,z,deltaX,deltaY,deltaX_sum,deltaY_sum,v_x,v_y,DD[0],DD[1],DD[2],DD[3],dd1,dd2,dd3,dd4,Pitch,Roll,Yaw,Yaw_pix,heading_pix,Height,acc[0],acc[1],acc[2],omega[0],omega[1],omega[2],Mode,Mode_pos,rcCMD[0],rcCMD[1],rcCMD[2],rcCMD[3]
1575620955.117,-0.008,-0.008,-0.021,-0.000,0.000,0.000,0.000,0.001,0.001,363.000,525.000,497.000,287.000,3.630,5.250,4.970,2.870,0.017,-0.018,0.000,-0.000,89.000,0.065,-0.176,-0.186,-10.090,0.001,-0.001,0.002,0,0,1500,1500,1000,1500
1575620955.139,-0.007,-0.008,-0.020,-0.000,0.000,0.000,0.000,0.002,0.001,363.000,525.000,497.000,287.000,3.630,5.250,4.970,2.870,0.017,-0.017,0.000,-0.000,89.000,0.065,-0.183,-0.185,-10.098,-0.000,-0.000,-0.003,0,0,1500,1500,1000,1500
1575620955.160,-0.005,-0.007,-0.018,-0.000,0.000,0.000,0.000,0.002,0.001,363.000,525.000,497.000,287.000,3.630,5.250,4.970,2.870,0.017,-0.017,0.000,-0.000,89.000,0.070,-0.177,-0.181,-10.082,-0.000,-0.000,-0.005,0,0,1500,1500,1000,1500
1575620955.183,-0.003,-0.007,-0.002,-0.000,0.000,0.000,0.000,0.002,-0.000,358.000,525.000,487.000,280.000,3.580,5.250,4.870,2.800,0.017,-0.017,-0.000,-0.000,89.000,0.070,-0.175,-0.184,-10.078,-0.000,-0.002,-0.002,0,0,1500,1500,1000,1500
1575620955.206,-0.001,-0.008,0.011,-0.000,0.000,0.000,0.000,0.002,-0.001,358.000,525.000,487.000,280.000,3.580,5.250,4.870,2.800,0.018,-0.016,-0.000,-0.000,89.000,0.070,-0.177,-0.183,-10.071,-0.001,-0.001,0.001,0,0,1500,1500,1000,1500
1575620955.227,0.000,-0.009,0.021,-0.000,0.000,0.000,0.000,0.002,-0.001,358.000,525.000,487.000,280.000,3.580,5.250,4.870,2.800,0.018,-0.016,-0.000,-0.000,89.000,0.070,-0.161,-0.178,-10.086,-0.001,0.001,0.002,0,0,1500,1500,1000,1500
1575620955.249,-0.002,-0.008,0.013,-0.000,0.000,0.000,0.000,-0.002,0.001,363.000,526.000,507.000,282.000,3.630,5.260,5.070,2.820,0.018,-0.016,-0.000,-0.000,89.000,0.068,-0.159,-0.174,-10.089,-0.000,0.001,0.001,0,0,1500,1500,1000,1500
1575620955.271,-0.005,-0.007,0.006,-0.000,0.000,0.000,0.000,-0.003,0.001,363.000,526.000,507.000,282.000,3.630,5.260,5.070,2.820,0.017,-0.017,-0.000,-0.000,89.000,0.072,-0.160,-0.171,-10.090,0.001,-0.000,-0.002,0,0,1500,1500,1000,1500
1575620955.297,-0.007,-0.006,0.001,-0.000,0.000,0.000,0.000,-0.003,0.001,363.000,526.000,507.000,282.000,3.630,5.260,5.070,2.820,0.017,-0.017,-0.000,0.000,89.000,0.072,-0.163,-0.168,-10.097,0.001,-0.002,0.002,0,0,1500,1500,1000,1500
1575620955.317,-0.009,-0.005,-0.005,-0.000,0.000,0.000,0.000,-0.003,0.001,363.000,526.000,507.000,282.000,3.630,5.260,5.070,2.820,0.016,-0.018,-0.000,0.000,89.000,0.072,-0.167,-0.158,-10.106,-0.001,-0.000,-0.000,0,0,1500,1500,1000,1500
1575620955.338,-0.009,-0.004,0.002,-0.000,0.000,0.000,0.000,-0.001,0.001,356.000,525.000,495.000,282.000,3.560,5.250,4.950,2.820,0.016,-0.017,-0.000,0.000,89.000,0.070,-0.162,-0.166,-10.102,-0.000,-0.002,0.002,0,0,1500,1500,1000,1500
1575620955.358,-0.006,-0.005,0.003,-0.000,0.000,0.000,0.000,0.002,-0.001,365.000,524.000,492.000,283.000,3.650,5.240,4.920,2.830,0.016,-0.017,-0.000,0.000,89.000,0.069,-0.172,-0.176,-10.114,-0.000,-0.001,0.002,0,0,1500,1500,1000,1500
1575620955.382,-0.004,-0.006,0.003,-0.000,0.000,0.000,0.000,0.003,-0.001,365.000,524.000,492.000,283.000,3.650,5.240,4.920,2.830,0.017,-0.016,0.000,0.000,89.000,0.069,-0.171,-0.179,-10.117,0.004,-0.000,0.003,0,0,1500,1500,1000,1500
1575620955.404,-0.002,-0.007,0.003,-0.000,0.000,0.000,0.000,0.003,-0.001,365.000,524.000,492.000,283.000,3.650,5.240,4.920,2.830,0.017,-0.016,0.000,0.000,89.000,0.071,-0.177,-0.172,-10.094,0.005,-0.001,-0.000,0,0,1500,1500,1000,1500
1575620955.425,-0.001,-0.007,-0.000,-0.000,0.000,0.000,0.000,0.001,-0.000,365.000,523.000,499.000,283.000,3.650,5.230,4.990,2.830,0.017,-0.016,0.000,0.000,89.000,0.069,-0.174,-0.167,-10.082,-0.000,-0.002,-0.002,0,0,1500,1500,1000,1500
1575620955.450,-0.000,-0.007,-0.003,-0.000,0.000,0.000,0.000,0.001,0.000,365.000,523.000,499.000,283.000,3.650,5.230,4.990,2.830,0.017,-0.016,0.000,0.000,89.000,0.069,-0.187,-0.158,-10.082,-0.002,-0.002,0.001,0,0,1500,1500,1000,1500
1575620955.470,0.002,-0.007,0.007,-0.000,0.000,0.000,0.000,0.003,0.000,358.000,523.000,486.000,282.000,3.580,5.230,4.860,2.820,0.017,-0.016,0.000,0.000,89.000,0.068,-0.191,-0.172,-10.076,0.004,-0.002,-0.000,0,0,1500,1500,1000,1500
1575620955.493,0.005,-0.007,0.015,-0.000,0.000,0.000,0.000,0.003,-0.000,358.000,523.000,486.000,282.000,3.580,5.230,4.860,2.820,0.017,-0.016,0.000,0.000,89.000,0.068,-0.192,-0.160,-10.060,-0.000,-0.000,0.002,0,0,1500,1500,1000,1500
1575620955.517,0.006,-0.008,0.011,-0.000,0.000,0.000,0.000,0.002,-0.000,365.000,523.000,495.000,284.000,3.650,5.230,4.950,2.840,0.016,-0.016,0.000,0.000,89.000,0.068,-0.176,-0.150,-10.045,-0.000,-0.001,-0.000,0,0,1500,1500,1000,1500
1575620955.539,0.008,-0.008,0.007,-0.000,0.000,0.000,0.000,0.002,-0.000,365.000,523.000,495.000,284.000,3.650,5.230,4.950,2.840,0.016,-0.016,0.000,-0.000,89.000,0.068,-0.180,-0.144,-10.059,0.002,0.001,0.001,0,0,1500,1500,1000,1500
1575620955.563,0.009,-0.008,0.003,-0.000,0.000,0.000,0.000,0.002,-0.000,365.000,523.000,495.000,284.000,3.650,5.230,4.950,2.840,0.016,-0.016,0.000,-0.000,89.000,0.068,-0.184,-0.157,-10.052,-0.000,-0.001,0.003,0,0,1500,1500,1000,1500
1575620955.583,0.010,-0.008,0.001,-0.000,0.000,0.000,0.000,0.002,-0.000,365.000,523.000,495.000,284.000,3.650,5.230,4.950,2.840,0.016,-0.016,0.000,-0.000,89.000,0.070,-0.167,-0.168,-10.048,-0.001,0.001,-0.000,0,0,1500,1500,1000,1500
1575620955.604,0.009,-0.009,0.001,-0.000,0.000,0.000,0.000,-0.001,-0.001,362.000,527.000,497.000,280.000,3.620,5.270,4.970,2.800,0.016,-0.016,0.000,-0.000,89.000,0.068,-0.159,-0.164,-10.056,-0.000,0.001,0.002,0,0,1500,1500,1000,1500
1575620955.625,0.010,-0.008,0.004,-0.000,0.000,0.000,0.000,0.001,0.001,360.000,522.000,494.000,283.000,3.600,5.220,4.940,2.830,0.016,-0.016,0.000,-0.000,89.000,0.067,-0.151,-0.160,-10.064,0.001,-0.001,0.003,0,0,1500,1500,1000,1500
1575620955.648,0.011,-0.007,0.006,-0.000,0.000,0.000,0.000,0.001,0.001,360.000,522.000,494.000,283.000,3.600,5.220,4.940,2.830,0.016,-0.016,0.000,-0.000,89.000,0.067,-0.160,-0.149,-10.063,-0.002,0.002,0.004,0,0,1500,1500,1000,1500
1575620955.670,0.011,-0.006,0.009,-0.000,0.000,0.000,0.000,0.001,0.001,360.000,522.000,494.000,283.000,3.600,5.220,4.940,2.830,0.015,-0.015,0.000,-0.000,89.000,0.071,-0.160,-0.152,-10.058,-0.001,-0.001,0.002,0,0,1500,1500,1000,1500
1575620955.695,0.012,-0.006,0.011,-0.000,0.000,0.000,0.000,0.001,0.001,360.000,522.000,494.000,283.000,3.600,5.220,4.940,2.830,0.015,-0.015,0.000,-0.000,89.000,0.071,-0.148,-0.144,-10.051,0.002,-0.000,-0.000,0,0,1500,1500,1000,1500
1575620955.713,0.012,-0.006,0.010,-0.000,0.000,0.000,0.000,0.001,0.000,365.000,520.000,498.000,281.000,3.650,5.200,4.980,2.810,0.015,-0.015,0.000,-0.000,89.000,0.071,-0.141,-0.150,-10.047,0.001,-0.000,0.002,0,0,1500,1500,1000,1500
1575620955.736,0.013,-0.006,0.009,-0.000,0.000,0.000,0.000,0.001,0.000,365.000,520.000,498.000,281.000,3.650,5.200,4.980,2.810,0.015,-0.015,0.000,-0.000,89.000,0.071,-0.155,-0.162,-10.058,-0.001,0.001,-0.000,0,0,1500,1500,1000,1500
1575620955.758,0.013,-0.005,0.005,-0.000,0.000,0.000,0.000,0.000,0.000,364.000,522.000,499.000,283.000,3.640,5.220,4.990,2.830,0.015,-0.015,0.000,-0.000,89.000,0.070,-0.162,-0.148,-10.045,0.001,0.001,0.004,0,0,1500,1500,1000,1500
1575620955.786,0.013,-0.005,0.002,-0.000,0.000,0.000,0.000,-0.000,0.000,364.000,522.000,499.000,283.000,3.640,5.220,4.990,2.830,0.015,-0.015,0.000,-0.000,89.000,0.070,-0.156,-0.147,-10.050,0.002,0.003,-0.000,0,0,1500,1500,1000,1500
1575620955.804,0.013,-0.005,-0.000,-0.000,0.000,0.000,0.000,-0.000,0.000,364.000,522.000,499.000,283.000,3.640,5.220,4.990,2.830,0.015,-0.015,0.000,-0.000,89.000,0.070,-0.168,-0.159,-10.062,-0.001,-0.000,0.002,0,0,1500,1500,1000,1500
1575620955.825,0.014,-0.005,-0.003,-0.000,0.000,0.000,0.000,0.001,-0.000,366.000,524.000,495.000,285.000,3.660,5.240,4.950,2.850,0.015,-0.016,0.000,-0.000,89.000,0.073,-0.174,-0.151,-10.065,0.002,-0.002,-0.003,0,0,1500,1500,1000,1500
1575620955.846,0.015,-0.006,-0.007,-0.000,0.000,0.000,0.000,0.001,-0.001,366.000,524.000,495.000,285.000,3.660,5.240,4.950,2.850,0.015,-0.016,0.000,-0.000,89.000,0.068,-0.162,-0.154,-10.058,-0.001,-0.002,0.001,0,0,1500,1500,1000,1500
1575620955.868,0.016,-0.006,-0.009,-0.000,0.000,0.000,0.000,0.001,-0.001,366.000,524.000,495.000,285.000,3.660,5.240,4.950,2.850,0.015,-0.016,0.000,-0.000,89.000,0.070,-0.166,-0.153,-10.039,-0.000,-0.001,0.001,0,0,1500,1500,1000,1500
1575620955.890,0.017,-0.007,-0.011,-0.000,0.000,0.000,0.000,0.001,-0.001,366.000,524.000,495.000,285.000,3.660,5.240,4.950,2.850,0.016,-0.016,0.000,-0.000,89.000,0.070,-0.164,-0.163,-10.048,0.001,-0.000,-0.003,0,0,1500,1500,1000,1500
1575620955.914,0.015,-0.009,-0.012,-0.000,0.000,0.000,0.000,-0.001,-0.002,367.000,527.000,500.000,279.000,3.670,5.270,5.000,2.790,0.016,-0.016,0.000,-0.000,89.000,0.070,-0.182,-0.159,-10.052,-0.000,0.001,-0.002,0,0,1500,1500,1000,1500
1575620955.937,0.013,-0.010,-0.012,-0.000,0.000,0.000,0.000,-0.002,-0.002,367.000,527.000,500.000,279.000,3.670,5.270,5.000,2.790,0.017,-0.017,0.000,-0.000,89.000,0.070,-0.185,-0.160,-10.038,0.002,-0.000,0.002,0,0,1500,1500,1000,1500
1575620955.957,0.011,-0.012,-0.014,-0.000,0.000,0.000,0.000,-0.002,-0.002,367.000,527.000,500.000,279.000,3.670,5.270,5.000,2.790,0.017,-0.018,0.000,-0.000,89.000,0.064,-0.189,-0.162,-10.054,0.001,-0.002,-0.002,0,0,1500,1500,1000,1500
1575620955.979,0.010,-0.014,-0.014,-0.000,0.000,0.000,0.000,-0.002,-0.002,367.000,527.000,500.000,279.000,3.670,5.270,5.000,2.790,0.018,-0.019,0.000,-0.000,89.000,0.064,-0.190,-0.180,-10.065,0.001,-0.000,0.001,0,0,1500,1500,1000,1500
1575620956.007,0.011,-0.014,-0.008,-0.000,0.000,0.000,0.000,0.000,-0.001,363.000,523.000,493.000,282.000,3.630,5.230,4.930,2.820,0.018,-0.018,0.000,-0.000,89.000,0.070,-0.174,-0.173,-10.076,-0.000,-0.000,0.002,0,0,1500,1500,1000,1500
1575620956.028,0.012,-0.014,-0.003,-0.000,0.000,0.000,0.000,0.001,-0.000,363.000,523.000,493.000,282.000,3.630,5.230,4.930,2.820,0.018,-0.018,0.000,-0.000,89.000,0.070,-0.179,-0.178,-10.077,0.001,-0.001,0.002,0,0,1500,1500,1000,1500
1575620956.049,0.013,-0.014,0.002,-0.000,0.000,0.000,0.000,0.001,-0.000,363.000,523.000,493.000,282.000,3.630,5.230,4.930,2.820,0.018,-0.018,0.000,-0.000,89.000,0.070,-0.174,-0.171,-10.075,-0.002,-0.001,-0.002,0,0,1500,1500,1000,1500
1575620956.068,0.009,-0.012,-0.003,-0.000,0.000,0.000,0.000,-0.003,0.001,363.000,525.000,509.000,281.000,3.630,5.250,5.090,2.810,0.017,-0.018,0.000,-0.000,89.000,0.068,-0.176,-0.171,-10.067,-0.004,0.002,0.001,0,0,1500,1500,1000,1500
1575620956.090,0.010,-0.012,-0.002,-0.000,0.000,0.000,0.000,-0.000,0.001,362.000,525.000,494.000,284.000,3.620,5.250,4.940,2.840,0.017,-0.018,0.000,-0.000,89.000,0.069,-0.189,-0.177,-10.059,0.003,-0.001,0.001,0,0,1500,1500,1000,1500
1575620956.113,0.010,-0.012,-0.001,-0.000,0.000,0.000,0.000,0.000,0.000,362.000,525.000,494.000,284.000,3.620,5.250,4.940,2.840,0.017,-0.018,0.000,-0.000,89.000,0.067,-0.180,-0.173,-10.077,0.001,-0.003,-0.000,0,0,1500,1500,1000,1500
1575620956.134,0.011,-0.011,-0.000,-0.000,0.000,0.000,0.000,0.001,0.000,362.000,525.000,494.000,284.000,3.620,5.250,4.940,2.840,0.017,-0.018,0.000,-0.000,89.000,0.067,-0.181,-0.167,-10.074,0.001,-0.000,-0.000,0,0,1500,1500,1000,1500
1575620956.158,0.008,-0.011,0.000,-0.000,0.000,0.000,0.000,-0.002,0.001,360.000,527.000,501.000,280.000,3.600,5.270,5.010,2.800,0.017,-0.018,0.000,-0.000,89.000,0.067,-0.180,-0.169,-10.072,0.002,0.001,0.002,0,0,1500,1500,1000,1500
1575620956.182,0.006,-0.010,0.001,-0.000,0.000,0.000,0.000,-0.003,0.001,360.000,527.000,501.000,280.000,3.600,5.270,5.010,2.800,0.016,-0.019,0.000,-0.000,89.000,0.067,-0.183,-0.147,-10.069,-0.002,0.001,0.001,0,0,1500,1500,1000,1500
1575620956.201,0.004,-0.009,0.003,-0.000,0.000,0.000,0.000,-0.003,0.001,358.000,526.000,500.000,281.000,3.580,5.260,5.000,2.810,0.015,-0.020,0.000,-0.000,89.000,0.067,-0.192,-0.137,-10.087,-0.000,-0.000,0.001,0,0,1500,1500,1000,1500
1575620956.225,0.002,-0.008,0.004,-0.000,0.000,0.000,0.000,-0.003,0.001,358.000,526.000,500.000,281.000,3.580,5.260,5.000,2.810,0.014,-0.020,0.000,-0.000,89.000,0.067,-0.181,-0.133,-10.079,-0.003,-0.000,0.002,0,0,1500,1500,1000,1500
1575620956.247,0.000,-0.007,0.006,-0.000,0.000,0.000,0.000,-0.002,0.001,358.000,526.000,500.000,281.000,3.580,5.260,5.000,2.810,0.014,-0.020,0.000,-0.000,89.000,0.069,-0.174,-0.136,-10.080,-0.001,0.001,-0.002,0,0,1500,1500,1000,1500
1575620956.270,-0.001,-0.006,0.007,-0.000,0.000,0.000,0.000,-0.002,0.001,358.000,526.000,500.000,281.000,3.580,5.260,5.000,2.810,0.013,-0.019,0.000,-0.000,89.000,0.069,-0.170,-0.139,-10.066,0.004,-0.003,-0.000,0,0,1500,1500,1000,1500
1575620956.290,-0.002,-0.005,0.010,-0.000,0.000,0.000,0.000,-0.001,0.001,360.000,524.000,499.000,279.000,3.600,5.240,4.990,2.790,0.013,-0.019,0.000,-0.000,89.000,0.071,-0.164,-0.132,-10.064,0.005,0.001,-0.000,0,0,1500,1500,1000,1500
1575620956.313,-0.003,-0.005,0.012,-0.000,0.000,0.000,0.000,-0.001,0.000,360.000,524.000,499.000,279.000,3.600,5.240,4.990,2.790,0.014,-0.018,0.000,-0.000,89.000,0.071,-0.154,-0.146,-10.061,0.001,-0.000,-0.000,0,0,1500,1500,1000,1500
1575620956.334,-0.004,-0.005,0.014,-0.000,0.000,0.000,0.000,-0.001,0.000,360.000,523.000,499.000,279.000,3.600,5.230,4.990,2.790,0.014,-0.018,0.000,-0.000,89.000,0.070,-0.161,-0.147,-10.069,-0.001,0.001,-0.000,0,0,1500,1500,1000,1500
1575620956.356,-0.004,-0.004,0.016,-0.000,0.000,0.000,0.000,-0.001,0.000,360.000,523.000,499.000,279.000,3.600,5.230,4.990,2.790,0.014,-0.018,0.000,-0.000,89.000,0.071,-0.162,-0.163,-10.084,-0.002,0.001,-0.000,0,0,1500,1500,1000,1500
1575620956.378,-0.005,-0.004,0.017,-0.000,0.000,0.000,0.000,-0.001,0.000,360.000,523.000,499.000,279.000,3.600,5.230,4.990,2.790,0.015,-0.018,0.000,-0.000,89.000,0.071,-0.169,-0.186,-10.080,0.001,-0.001,-0.000,0,0,1500,1500,1000,1500
1575620956.401,-0.003,-0.005,0.016,-0.000,0.000,0.000,0.000,0.001,-0.000,363.000,522.000,494.000,281.000,3.630,5.220,4.940,2.810,0.016,-0.017,0.000,-0.000,89.000,0.069,-0.177,-0.191,-10.077,-0.000,0.001,-0.002,0,0,1500,1500,1000,1500
1575620956.429,-0.002,-0.005,0.016,-0.000,0.000,0.000,0.000,0.002,-0.001,363.000,522.000,494.000,281.000,3.630,5.220,4.940,2.810,0.017,-0.016,0.000,-0.000,89.000,0.069,-0.161,-0.197,-10.091,-0.001,0.002,-0.000,0,0,1500,1500,1000,1500
1575620956.445,0.001,-0.006,0.015,-0.000,0.000,0.000,0.000,0.003,-0.001,363.000,525.000,489.000,283.000,3.630,5.250,4.890,2.830,0.018,-0.015,0.000,-0.000,89.000,0.070,-0.152,-0.192,-10.099,0.002,-0.001,0.001,0,0,1500,1500,1000,1500
1575620956.467,0.003,-0.007,0.014,-0.000,0.000,0.000,0.000,0.003,-0.001,363.000,525.000,489.000,283.000,3.630,5.250,4.890,2.830,0.018,-0.015,0.000,-0.000,89.000,0.070,-0.164,-0.183,-10.125,-0.002,-0.001,-0.002,0,0,1500,1500,1000,1500
1575620956.492,0.005,-0.009,0.013,-0.000,0.000,0.000,0.000,0.003,-0.001,363.000,525.000,489.000,283.000,3.630,5.250,4.890,2.830,0.018,-0.015,0.000,-0.000,89.000,0.070,-0.161,-0.178,-10.130,-0.001,0.001,0.001,0,0,1500,1500,1000,1500
1575620956.513,0.005,-0.009,0.011,-0.000,0.000,0.000,0.000,0.000,-0.001,364.000,523.000,499.000,279.000,3.640,5.230,4.990,2.790,0.018,-0.015,0.000,-0.000,89.000,0.069,-0.167,-0.161,-10.134,-0.001,-0.001,-0.000,0,0,1500,1500,1000,1500
1575620956.534,0.004,-0.009,0.009,-0.000,0.000,0.000,0.000,-0.000,-0.001,364.000,523.000,499.000,279.000,3.640,5.230,4.990,2.790,0.018,-0.016,0.000,-0.000,89.000,0.069,-0.185,-0.164,-10.117,0.003,-0.001,-0.000,0,0,1500,1500,1000,1500
1575620956.556,0.004,-0.010,0.007,-0.000,0.000,0.000,0.000,-0.001,-0.000,364.000,523.000,499.000,279.000,3.640,5.230,4.990,2.790,0.017,-0.017,0.000,-0.000,89.000,0.069,-0.185,-0.163,-10.142,-0.001,0.002,-0.002,0,0,1500,1500,1000,1500
1575620956.578,0.003,-0.010,0.006,-0.000,0.000,0.000,0.000,-0.001,-0.000,364.000,523.000,499.000,279.000,3.640,5.230,4.990,2.790,0.017,-0.017,0.000,-0.000,89.000,0.069,-0.186,-0.162,-10.119,-0.000,-0.000,-0.002,0,0,1500,1500,1000,1500
1575620956.601,0.003,-0.011,0.005,-0.000,0.000,0.000,0.000,-0.001,-0.000,364.000,523.000,499.000,279.000,3.640,5.230,4.990,2.790,0.017,-0.018,0.000,-0.000,89.000,0.069,-0.187,-0.171,-10.141,-0.000,-0.000,0.002,0,0,1500,1500,1000,1500
1575620956.622,0.003,-0.011,0.004,-0.000,0.000,0.000,0.000,-0.001,-0.000,364.000,523.000,499.000,279.000,3.640,5.230,4.990,2.790,0.017,-0.018,0.000,-0.000,89.000,0.068,-0.181,-0.176,-10.110,-0.000,-0.000,0.001,0,0,1500,1500,1000,1500
1575620956.645,0.002,-0.011,0.004,-0.000,0.000,0.000,0.000,-0.001,-0.000,364.000,523.000,499.000,279.000,3.640,5.230,4.990,2.790,0.017,-0.018,0.000,-0.000,89.000,0.069,-0.190,-0.172,-10.085,-0.000,-0.000,0.001,0,0,1500,1500,1000,1500
1575620956.667,0.002,-0.012,0.004,-0.000,0.000,0.000,0.000,-0.000,-0.000,364.000,523.000,499.000,279.000,3.640,5.230,4.990,2.790,0.017,-0.019,0.000,-0.000,89.000,0.069,-0.198,-0.158,-10.099,-0.001,-0.000,0.002,0,0,1500,1500,1000,1500
1575620956.688,0.002,-0.012,0.008,-0.000,0.000,0.000,0.000,-0.000,-0.000,362.000,522.000,498.000,278.000,3.620,5.220,4.980,2.780,0.017,-0.019,0.000,-0.000,89.000,0.072,-0.189,-0.164,-10.089,0.001,0.003,-0.000,0,0,1500,1500,1000,1500
1575620956.715,0.001,-0.012,0.011,-0.000,0.000,0.000,0.000,-0.000,0.000,362.000,522.000,498.000,278.000,3.620,5.220,4.980,2.780,0.017,-0.019,0.000,-0.000,89.000,0.072,-0.185,-0.165,-10.091,0.002,-0.002,-0.000,0,0,1500,1500,1000,1500
1575620956.734,0.001,-0.012,0.013,-0.000,0.000,0.000,0.000,-0.000,0.000,362.000,522.000,498.000,278.000,3.620,5.220,4.980,2.780,0.017,-0.019,0.000,-0.000,89.000,0.072,-0.199,-0.176,-10.088,0.003,0.001,0.001,0,0,1500,1500,1000,1500
1575620956.760,-0.001,-0.011,0.014,-0.000,0.000,0.000,0.000,-0.002,0.001,358.000,526.000,499.000,280.000,3.580,5.260,4.990,2.800,0.017,-0.020,0.000,-0.000,89.000,0.070,-0.208,-0.169,-10.098,-0.003,0.001,0.002,0,0,1500,1500,1000,1500
1575620956.777,-0.002,-0.010,0.013,-0.000,0.000,0.000,0.000,-0.002,0.001,358.000,526.000,499.000,280.000,3.580,5.260,4.990,2.800,0.017,-0.020,0.000,-0.000,89.000,0.068,-0.196,-0.176,-10.087,0.001,-0.002,0.001,0,0,1500,1500,1000,1500
1575620956.800,-0.003,-0.009,0.013,-0.000,0.000,0.000,0.000,-0.002,0.001,358.000,526.000,499.000,280.000,3.580,5.260,4.990,2.800,0.017,-0.020,0.000,-0.000,89.000,0.068,-0.177,-0.176,-10.081,0.002,-0.000,-0.000,0,0,1500,1500,1000,1500
1575620956.822,-0.002,-0.011,0.010,-0.000,0.000,0.000,0.000,0.001,-0.002,366.000,527.000,492.000,280.000,3.660,5.270,4.920,2.800,0.017,-0.019,0.000,-0.000,89.000,0.069,-0.177,-0.177,-10.080,-0.000,-0.001,-0.002,0,0,1500,1500,1000,1500
1575620956.844,-0.001,-0.010,0.010,-0.000,0.000,0.000,0.000,0.002,0.000,360.000,523.000,493.000,284.000,3.600,5.230,4.930,2.840,0.017,-0.018,0.000,-0.000,89.000,0.068,-0.181,-0.169,-10.067,0.001,-0.000,-0.004,0,0,1500,1500,1000,1500
1575620956.865,0.001,-0.009,0.010,-0.000,0.000,0.000,0.000,0.002,0.001,360.000,523.000,493.000,284.000,3.600,5.230,4.930,2.840,0.017,-0.018,0.000,-0.000,89.000,0.068,-0.179,-0.169,-10.059,0.001,-0.002,-0.000,0,0,1500,1500,1000,1500
1575620956.893,0.001,-0.007,0.007,-0.000,0.000,0.000,0.000,0.001,0.002,360.000,522.000,500.000,284.000,3.600,5.220,5.000,2.840,0.017,-0.018,0.000,-0.000,89.000,0.068,-0.193,-0.178,-10.074,0.002,-0.001,-0.000,0,0,1500,1500,1000,1500
1575620956.912,0.001,-0.005,0.004,-0.000,0.000,0.000,0.000,0.000,0.002,360.000,522.000,500.000,284.000,3.600,5.220,5.000,2.840,0.016,-0.018,0.000,-0.000,89.000,0.068,-0.192,-0.177,-10.071,0.001,-0.000,0.001,0,0,1500,1500,1000,1500
1575620956.933,0.001,-0.004,0.001,-0.000,0.000,0.000,0.000,-0.000,0.002,360.000,522.000,500.000,284.000,3.600,5.220,5.000,2.840,0.016,-0.019,0.000,-0.000,89.000,0.066,-0.196,-0.172,-10.064,0.001,-0.001,0.003,0,0,1500,1500,1000,1500
1575620956.959,0.001,-0.002,-0.001,-0.000,0.000,0.000,0.000,-0.000,0.002,360.000,522.000,500.000,284.000,3.600,5.220,5.000,2.840,0.016,-0.019,0.000,-0.000,89.000,0.066,-0.193,-0.163,-10.061,0.001,-0.000,-0.002,0,0,1500,1500,1000,1500
1575620956.979,0.001,-0.000,-0.002,-0.000,0.000,0.000,0.000,-0.000,0.002,360.000,522.000,500.000,284.000,3.600,5.220,5.000,2.840,0.015,-0.019,0.000,-0.000,89.000,0.066,-0.178,-0.150,-10.073,0.002,-0.000,0.001,0,0,1500,1500,1000,1500
1575620957.001,0.003,-0.002,-0.000,-0.000,0.000,0.000,0.000,0.002,-0.001,365.000,523.000,492.000,281.000,3.650,5.230,4.920,2.810,0.015,-0.018,0.000,-0.000,89.000,0.067,-0.177,-0.149,-10.058,-0.000,0.002,-0.000,0,0,1500,1500,1000,1500
1575620957.022,0.003,-0.002,-0.001,-0.000,0.000,0.000,0.000,0.001,-0.000,365.000,520.000,500.000,281.000,3.650,5.200,5.000,2.810,0.015,-0.018,0.000,-0.000,89.000,0.067,-0.177,-0.154,-10.081,-0.002,0.001,0.002,0,0,1500,1500,1000,1500
1575620957.044,0.004,-0.002,-0.002,-0.000,0.000,0.000,0.000,0.001,-0.000,365.000,520.000,500.000,281.000,3.650,5.200,5.000,2.810,0.015,-0.017,0.000,-0.000,89.000,0.067,-0.172,-0.159,-10.085,0.001,-0.002,0.001,0,0,1500,1500,1000,1500
1575620957.066,0.004,-0.002,-0.002,-0.000,0.000,0.000,0.000,0.001,-0.000,365.000,520.000,500.000,281.000,3.650,5.200,5.000,2.810,0.015,-0.017,0.000,-0.000,89.000,0.068,-0.158,-0.160,-10.095,0.002,0.001,-0.000,0,0,1500,1500,1000,1500
1575620957.087,0.004,-0.002,-0.002,-0.000,0.000,0.000,0.000,0.001,-0.000,365.000,520.000,500.000,281.000,3.650,5.200,5.000,2.810,0.015,-0.016,0.000,-0.000,89.000,0.069,-0.158,-0.152,-10.103,0.001,-0.002,-0.000,0,0,1500,1500,1000,1500
1575620957.112,0.005,-0.002,-0.002,-0.000,0.000,0.000,0.000,0.001,0.000,365.000,520.000,500.000,281.000,3.650,5.200,5.000,2.810,0.015,-0.016,0.000,-0.000,89.000,0.069,-0.152,-0.151,-10.094,-0.000,-0.002,0.001,0,0,1500,1500,1000,1500
1575620957.135,0.005,-0.002,-0.002,-0.000,0.000,0.000,0.000,0.001,0.000,365.000,520.000,500.000,281.000,3.650,5.200,5.000,2.810,0.016,-0.016,0.000,-0.000,89.000,0.068,-0.151,-0.170,-10.094,0.001,-0.002,-0.002,0,0,1500,1500,1000,1500
1575620957.155,0.006,-0.002,-0.002,-0.000,0.000,0.000,0.000,0.001,-0.000,365.000,520.000,500.000,281.000,3.650,5.200,5.000,2.810,0.016,-0.015,0.000,-0.000,89.000,0.068,-0.154,-0.159,-10.106,0.001,-0.001,-0.002,0,0,1500,1500,1000,1500
1575620957.176,0.003,-0.002,-0.004,-0.000,0.000,0.000,0.000,-0.002,0.000,360.000,529.000,502.000,282.000,3.600,5.290,5.020,2.820,0.016,-0.016,0.000,-0.000,89.000,0.067,-0.157,-0.159,-10.095,0.002,0.001,-0.000,0,0,1500,1500,1000,1500
1575620957.200,0.000,-0.001,-0.007,-0.000,0.000,0.000,0.000,-0.003,0.000,360.000,529.000,502.000,282.000,3.600,5.290,5.020,2.820,0.016,-0.016,0.000,-0.000,89.000,0.067,-0.154,-0.166,-10.090,0.001,-0.001,-0.000,0,0,1500,1500,1000,1500
1575620957.227,-0.002,-0.001,-0.008,-0.000,0.000,0.000,0.000,-0.003,0.000,360.000,529.000,502.000,282.000,3.600,5.290,5.020,2.820,0.016,-0.017,0.000,-0.000,89.000,0.070,-0.158,-0.171,-10.076,0.002,-0.002,0.002,0,0,1500,1500,1000,1500
1575620957.245,-0.004,-0.001,-0.009,-0.000,0.000,0.000,0.000,-0.003,0.000,360.000,529.000,502.000,282.000,3.600,5.290,5.020,2.820,0.017,-0.018,0.000,-0.000,89.000,0.070,-0.168,-0.182,-10.096,-0.001,-0.001,-0.000,0,0,1500,1500,1000,1500
1575620957.265,-0.003,-0.001,-0.007,-0.000,0.000,0.000,0.000,-0.000,-0.001,362.000,527.000,494.000,284.000,3.620,5.270,4.940,2.840,0.017,-0.017,0.000,-0.000,89.000,0.069,-0.165,-0.171,-10.091,0.001,0.002,0.002,0,0,1500,1500,1000,1500
1575620957.287,-0.002,-0.002,-0.002,-0.000,0.000,0.000,0.000,0.001,-0.001,363.000,523.000,494.000,281.000,3.630,5.230,4.940,2.810,0.017,-0.017,0.000,-0.000,89.000,0.072,-0.161,-0.169,-10.068,-0.002,0.002,-0.000,0,0,1500,1500,1000,1500
1575620957.309,-0.001,-0.003,0.003,-0.000,0.000,0.000,0.000,0.002,-0.001,363.000,523.000,494.000,281.000,3.630,5.230,4.940,2.810,0.017,-0.017,0.000,-0.000,89.000,0.072,-0.177,-0.162,-10.043,0.001,0.001,0.002,0,0,1500,1500,1000,1500
1575620957.332,0.001,-0.004,0.006,-0.000,0.000,0.000,0.000,0.002,-0.001,363.000,523.000,494.000,281.000,3.630,5.230,4.940,2.810,0.017,-0.017,0.000,-0.000,89.000,0.069,-0.181,-0.151,-10.039,-0.002,-0.002,0.001,0,0,1500,1500,1000,1500
1575620957.355,0.002,-0.004,0.008,-0.000,0.000,0.000,0.000,0.002,-0.001,363.000,523.000,494.000,281.000,3.630,5.230,4.940,2.810,0.017,-0.017,0.000,-0.000,89.000,0.069,-0.190,-0.161,-10.044,0.001,-0.002,-0.003,0,0,1500,1500,1000,1500
1575620957.377,0.001,-0.004,0.006,-0.000,0.000,0.000,0.000,0.000,0.001,362.000,523.000,500.000,283.000,3.620,5.230,5.000,2.830,0.016,-0.017,0.000,-0.000,89.000,0.071,-0.185,-0.153,-10.062,0.002,0.002,-0.002,0,0,1500,1500,1000,1500
1575620957.398,0.001,-0.003,0.005,-0.000,0.000,0.000,0.000,-0.000,0.001,362.000,523.000,500.000,283.000,3.620,5.230,5.000,2.830,0.016,-0.017,0.000,-0.000,89.000,0.071,-0.179,-0.151,-10.063,-0.000,-0.002,0.001,0,0,1500,1500,1000,1500
1575620957.420,0.001,-0.003,0.009,-0.000,0.000,0.000,0.000,0.000,-0.000,362.000,522.000,497.000,279.000,3.620,5.220,4.970,2.790,0.016,-0.017,0.000,-0.000,89.000,0.072,-0.180,-0.159,-10.049,0.001,-0.001,-0.000,0,0,1500,1500,1000,1500
1575620957.444,0.002,-0.003,0.012,-0.000,0.000,0.000,0.000,0.000,-0.000,362.000,522.000,497.000,279.000,3.620,5.220,4.970,2.790,0.016,-0.018,0.000,-0.000,89.000,0.072,-0.185,-0.156,-10.068,-0.001,-0.000,-0.002,0,0,1500,1500,1000,1500
1575620957.468,0.001,-0.004,0.006,-0.000,0.000,0.000,0.000,-0.000,-0.000,364.000,526.000,499.000,283.000,3.640,5.260,4.990,2.830,0.016,-0.018,0.000,-0.000,89.000,0.069,-0.171,-0.165,-10.073,0.001,0.001,-0.002,0,0,1500,1500,1000,1500
1575620957.489,0.001,-0.004,0.001,-0.000,0.000,0.000,0.000,-0.000,-0.000,364.000,526.000,499.000,283.000,3.640,5.260,4.990,2.830,0.016,-0.018,-0.000,-0.000,89.000,0.069,-0.173,-0.164,-10.070,-0.001,-0.001,0.002,0,0,1500,1500,1000,1500
1575620957.510,0.001,-0.004,-0.003,-0.000,0.000,0.000,0.000,-0.000,-0.000,364.000,526.000,499.000,283.000,3.640,5.260,4.990,2.830,0.017,-0.018,0.000,-0.000,89.000,0.070,-0.175,-0.176,-10.057,0.001,-0.001,0.001,0,0,1500,1500,1000,1500
1575620957.532,-0.002,-0.004,-0.005,-0.000,0.000,0.000,0.000,-0.002,0.001,360.000,527.000,503.000,282.000,3.600,5.270,5.030,2.820,0.017,-0.018,0.000,-0.000,89.000,0.069,-0.171,-0.170,-10.056,0.001,-0.003,0.001,0,0,1500,1500,1000,1500
1575620957.555,-0.004,-0.003,-0.007,-0.000,0.000,0.000,0.000,-0.003,0.001,360.000,527.000,503.000,282.000,3.600,5.270,5.030,2.820,0.017,-0.018,0.000,-0.000,89.000,0.069,-0.172,-0.177,-10.058,-0.001,-0.000,0.002,0,0,1500,1500,1000,1500
1575620957.575,-0.005,-0.002,-0.004,-0.000,0.000,0.000,0.000,-0.002,0.001,360.000,522.000,502.000,280.000,3.600,5.220,5.020,2.800,0.016,-0.018,0.000,-0.000,89.000,0.067,-0.175,-0.172,-10.049,-0.000,-0.002,0.001,0,0,1500,1500,1000,1500
1575620957.602,-0.006,-0.001,-0.001,-0.000,0.000,0.000,0.000,-0.001,0.001,360.000,522.000,502.000,280.000,3.600,5.220,5.020,2.800,0.016,-0.019,0.000,-0.000,89.000,0.067,-0.182,-0.162,-10.055,-0.000,0.001,-0.002,0,0,1500,1500,1000,1500
1575620957.623,-0.006,0.000,0.002,-0.000,0.000,0.000,0.000,-0.001,0.001,360.000,522.000,502.000,280.000,3.600,5.220,5.020,2.800,0.016,-0.019,0.000,-0.000,89.000,0.070,-0.182,-0.161,-10.066,-0.002,0.001,-0.003,0,0,1500,1500,1000,1500
1575620957.645,-0.007,0.001,0.004,-0.000,0.000,0.000,0.000,-0.001,0.001,360.000,522.000,502.000,280.000,3.600,5.220,5.020,2.800,0.015,-0.019,-0.000,-0.000,89.000,0.070,-0.187,-0.154,-10.075,0.001,-0.000,0.001,0,0,1500,1500,1000,1500
1575620957.666,-0.009,0.002,0.004,-0.000,0.000,0.000,0.000,-0.002,0.001,360.000,523.000,504.000,280.000,3.600,5.230,5.040,2.800,0.015,-0.019,-0.000,-0.000,89.000,0.069,-0.181,-0.146,-10.071,-0.001,-0.000,0.001,0,0,1500,1500,1000,1500
1575620957.690,-0.010,0.003,0.004,-0.000,0.000,0.000,0.000,-0.002,0.001,360.000,523.000,504.000,280.000,3.600,5.230,5.040,2.800,0.015,-0.019,0.000,-0.000,89.000,0.069,-0.174,-0.150,-10.067,-0.001,0.002,0.001,0,0,1500,1500,1000,1500
1575620957.715,-0.011,0.004,0.004,-0.000,0.000,0.000,0.000,-0.002,0.001,360.000,523.000,504.000,280.000,3.600,5.230,5.040,2.800,0.014,-0.019,0.000,-0.000,89.000,0.069,-0.170,-0.150,-10.075,-0.000,-0.002,0.001,0,0,1500,1500,1000,1500
1575620957.733,-0.008,0.001,0.007,-0.000,0.000,0.000,0.000,0.003,-0.002,366.000,524.000,489.000,280.000,3.660,5.240,4.890,2.800,0.015,-0.018,0.000,-0.000,89.000,0.067,-0.176,-0.163,-10.077,0.001,-0.002,0.001,0,0,1500,1500,1000,1500
1575620957.755,-0.005,-0.002,0.009,-0.000,0.000,0.000,0.000,0.004,-0.003,366.000,524.000,489.000,280.000,3.660,5.240,4.890,2.800,0.016,-0.017,0.000,-0.000,89.000,0.068,-0.185,-0.157,-10.079,-0.000,-0.002,-0.000,0,0,1500,1500,1000,1500
1575620957.777,-0.003,-0.002,0.007,-0.000,0.000,0.000,0.000,0.003,-0.001,364.000,524.000,493.000,284.000,3.640,5.240,4.930,2.840,0.016,-0.017,0.000,-0.000,89.000,0.070,-0.175,-0.160,-10.075,-0.001,-0.001,0.002,0,0,1500,1500,1000,1500
1575620957.799,-0.001,-0.003,0.005,-0.000,0.000,0.000,0.000,0.003,-0.001,364.000,524.000,493.000,284.000,3.640,5.240,4.930,2.840,0.017,-0.017,0.000,-0.000,89.000,0.070,-0.193,-0.170,-10.072,-0.000,0.001,-0.002,0,0,1500,1500,1000,1500
1575620957.821,-0.001,-0.002,0.006,-0.000,0.000,0.000,0.000,0.000,0.000,360.000,523.000,499.000,281.000,3.600,5.230,4.990,2.810,0.017,-0.017,0.000,-0.000,89.000,0.069,-0.184,-0.179,-10.040,-0.002,-0.001,-0.002,0,0,1500,1500,1000,1500
1575620957.853,-0.002,-0.002,0.007,-0.000,0.000,0.000,0.000,-0.000,0.001,360.000,523.000,499.000,281.000,3.600,5.230,4.990,2.810,0.017,-0.017,-0.000,-0.000,89.000,0.069,-0.169,-0.182,-10.056,0.001,-0.001,-0.000,0,0,1500,1500,1000,1500
1575620957.874,0.000,-0.002,0.004,-0.000,0.000,0.000,0.000,0.002,0.000,363.000,525.000,493.000,286.000,3.630,5.250,4.930,2.860,0.017,-0.017,-0.000,-0.000,89.000,0.070,-0.183,-0.187,-10.070,-0.000,-0.000,0.002,0,0,1500,1500,1000,1500
1575620957.897,0.002,-0.002,0.001,-0.000,0.000,0.000,0.000,0.002,-0.000,363.000,525.000,493.000,286.000,3.630,5.250,4.930,2.860,0.018,-0.017,0.000,-0.000,89.000,0.068,-0.193,-0.184,-10.061,0.002,-0.002,-0.004,0,0,1500,1500,1000,1500
1575620957.927,0.004,-0.002,-0.002,-0.000,0.000,0.000,0.000,0.002,-0.000,363.000,525.000,493.000,286.000,3.630,5.250,4.930,2.860,0.018,-0.017,-0.000,-0.000,89.000,0.068,-0.199,-0.182,-10.075,-0.001,-0.001,-0.000,0,0,1500,1500,1000,1500
1575620957.946,0.005,-0.002,-0.004,-0.000,0.000,0.000,0.000,0.002,-0.000,363.000,525.000,493.000,286.000,3.630,5.250,4.930,2.860,0.018,-0.017,-0.000,-0.000,89.000,0.068,-0.194,-0.184,-10.085,-0.003,-0.002,0.002,0,0,1500,1500,1000,1500
1575620957.964,0.007,-0.003,-0.006,-0.000,0.000,0.000,0.000,0.002,-0.000,363.000,525.000,493.000,286.000,3.630,5.250,4.930,2.860,0.018,-0.017,-0.000,-0.000,89.000,0.068,-0.192,-0.179,-10.077,-0.001,-0.002,0.003,0,0,1500,1500,1000,1500
1575620957.985,0.006,-0.004,-0.008,0.003,0.000,0.000,0.000,0.002,-0.001,367.000,524.000,502.000,280.000,3.670,5.240,5.020,2.800,0.018,-0.018,0.000,-0.000,89.000,0.070,-0.191,-0.185,-10.070,-0.000,-0.000,0.001,0,0,1500,1500,1000,1500
1575620958.010,0.005,-0.005,-0.010,0.003,0.000,0.000,0.000,0.002,-0.001,367.000,524.000,502.000,280.000,3.670,5.240,5.020,2.800,0.019,-0.019,0.000,-0.000,89.000,0.070,-0.188,-0.187,-10.078,0.001,-0.000,-0.000,0,0,1500,1500,1000,1500
1575620958.029,0.004,-0.006,-0.011,-0.000,0.000,0.000,0.000,-0.000,-0.001,367.000,524.000,502.000,280.000,3.670,5.240,5.020,2.800,0.019,-0.018,0.000,-0.000,89.000,0.073,-0.181,-0.181,-10.052,-0.003,0.002,-0.000,0,0,1500,1500,1000,1500
1575620958.052,0.003,-0.007,-0.011,-0.000,0.000,0.000,0.000,-0.001,-0.001,367.000,524.000,502.000,280.000,3.670,5.240,5.020,2.800,0.019,-0.018,0.000,-0.000,89.000,0.073,-0.180,-0.174,-10.048,-0.003,0.001,-0.002,0,0,1500,1500,1000,1500
1575620958.075,0.002,-0.007,-0.012,-0.000,0.000,0.000,0.000,-0.001,-0.001,367.000,524.000,502.000,280.000,3.670,5.240,5.020,2.800,0.018,-0.018,-0.000,-0.000,89.000,0.068,-0.170,-0.169,-10.054,0.002,-0.000,0.002,0,0,1500,1500,1000,1500
1575620958.099,0.002,-0.008,-0.013,-0.000,0.000,0.000,0.000,-0.001,-0.001,367.000,524.000,502.000,280.000,3.670,5.240,5.020,2.800,0.018,-0.018,0.000,-0.000,89.000,0.068,-0.167,-0.166,-10.049,-0.000,0.002,0.002,0,0,1500,1500,1000,1500
1575620958.117,0.001,-0.009,-0.013,-0.000,0.000,0.000,0.000,-0.001,-0.001,367.000,524.000,502.000,280.000,3.670,5.240,5.020,2.800,0.018,-0.018,0.000,-0.000,89.000,0.069,-0.166,-0.163,-10.043,0.001,-0.002,-0.004,0,0,1500,1500,1000,1500
1575620958.139,0.000,-0.010,-0.013,-0.000,0.000,0.000,0.000,-0.001,-0.001,367.000,524.000,502.000,280.000,3.670,5.240,5.020,2.800,0.018,-0.018,-0.000,-0.000,89.000,0.070,-0.167,-0.169,-10.020,-0.003,-0.000,-0.000,0,0,1500,1500,1000,1500
1575620958.163,-0.000,-0.010,-0.013,-0.000,0.000,0.000,0.000,-0.001,-0.001,367.000,524.000,502.000,280.000,3.670,5.240,5.020,2.800,0.018,-0.018,-0.000,-0.000,89.000,0.070,-0.165,-0.175,-10.012,0.002,-0.000,0.001,0,0,1500,1500,1000,1500
1575620958.189,-0.001,-0.011,-0.013,-0.000,0.000,0.000,0.000,-0.001,-0.001,367.000,524.000,502.000,280.000,3.670,5.240,5.020,2.800,0.018,-0.017,-0.000,-0.000,89.000,0.070,-0.162,-0.168,-10.020,-0.002,-0.000,0.001,0,0,1500,1500,1000,1500
1575620958.208,-0.002,-0.012,-0.012,-0.000,0.000,0.000,0.000,-0.001,-0.001,367.000,524.000,502.000,280.000,3.670,5.240,5.020,2.800,0.018,-0.017,-0.000,-0.000,89.000,0.070,-0.163,-0.167,-10.029,-0.000,-0.001,-0.002,0,0,1500,1500,1000,1500
1575620958.229,-0.003,-0.009,-0.013,-0.000,0.000,0.000,0.000,-0.002,0.002,360.000,524.000,505.000,284.000,3.600,5.240,5.050,2.840,0.017,-0.018,-0.000,-0.000,89.000,0.068,-0.176,-0.154,-10.028,0.003,-0.002,-0.002,0,0,1500,1500,1000,1500
1575620958.252,-0.005,-0.007,-0.013,-0.000,0.000,0.000,0.000,-0.002,0.003,360.000,524.000,505.000,284.000,3.600,5.240,5.050,2.840,0.016,-0.019,-0.000,-0.000,89.000,0.068,-0.194,-0.159,-10.037,0.001,-0.000,0.001,0,0,1500,1500,1000,1500
1575620958.273,-0.006,-0.005,-0.013,-0.000,0.000,0.000,0.000,-0.002,0.003,360.000,524.000,505.000,284.000,3.600,5.240,5.050,2.840,0.015,-0.019,-0.000,-0.000,89.000,0.066,-0.199,-0.166,-10.057,-0.001,0.001,0.001,0,0,1500,1500,1000,1500
1575620958.296,-0.007,-0.003,-0.014,-0.000,0.000,0.000,0.000,-0.002,0.003,360.000,524.000,505.000,284.000,3.600,5.240,5.050,2.840,0.015,-0.020,-0.000,-0.000,89.000,0.066,-0.208,-0.171,-10.061,0.001,-0.002,-0.000,0,0,1500,1500,1000,1500
1575620958.320,-0.009,-0.001,-0.013,-0.000,0.000,0.000,0.000,-0.002,0.002,360.000,524.000,505.000,284.000,3.600,5.240,5.050,2.840,0.015,-0.021,-0.000,-0.000,89.000,0.069,-0.206,-0.169,-10.077,-0.001,-0.003,-0.002,0,0,1500,1500,1000,1500
1575620958.344,-0.010,0.001,-0.013,-0.000,0.000,0.000,0.000,-0.002,0.002,360.000,524.000,505.000,284.000,3.600,5.240,5.050,2.840,0.015,-0.021,-0.000,-0.000,89.000,0.069,-0.210,-0.169,-10.080,0.002,0.001,-0.000,0,0,1500,1500,1000,1500
1575620958.361,-0.011,0.001,-0.011,-0.000,0.000,0.000,0.000,-0.001,0.000,363.000,526.000,501.000,281.000,3.630,5.260,5.010,2.810,0.015,-0.021,-0.000,-0.000,89.000,0.070,-0.212,-0.160,-10.083,-0.000,-0.004,0.001,0,0,1500,1500,1000,1500
1575620958.383,-0.010,0.001,-0.002,-0.000,0.000,0.000,0.000,0.000,0.000,360.000,522.000,497.000,280.000,3.600,5.220,4.970,2.800,0.015,-0.021,-0.000,-0.000,89.000,0.071,-0.211,-0.150,-10.079,-0.000,-0.004,-0.000,0,0,1500,1500,1000,1500
1575620958.408,-0.009,0.001,0.005,-0.000,0.000,0.000,0.000,0.001,0.000,360.000,522.000,497.000,280.000,3.600,5.220,4.970,2.800,0.015,-0.021,-0.000,-0.000,89.000,0.071,-0.203,-0.145,-10.088,-0.000,0.002,-0.002,0,0,1500,1500,1000,1500
1575620958.430,-0.009,0.001,0.011,-0.000,0.000,0.000,0.000,0.001,0.000,360.000,522.000,497.000,280.000,3.600,5.220,4.970,2.800,0.014,-0.020,-0.000,-0.000,89.000,0.071,-0.195,-0.136,-10.070,0.001,-0.000,-0.000,0,0,1500,1500,1000,1500
1575620958.450,-0.009,0.001,0.012,-0.000,0.000,0.000,0.000,-0.000,-0.000,362.000,523.000,501.000,278.000,3.620,5.230,5.010,2.780,0.014,-0.020,-0.000,-0.000,89.000,0.067,-0.184,-0.140,-10.073,-0.001,-0.000,-0.000,0,0,1500,1500,1000,1500
1575620958.471,-0.010,0.001,0.013,-0.000,0.000,0.000,0.000,-0.001,-0.000,362.000,523.000,501.000,278.000,3.620,5.230,5.010,2.780,0.015,-0.019,-0.000,-0.000,89.000,0.069,-0.178,-0.162,-10.075,0.001,-0.000,-0.003,0,0,1500,1500,1000,1500
1575620958.494,-0.011,0.000,0.014,-0.000,0.000,0.000,0.000,-0.001,-0.000,362.000,523.000,501.000,278.000,3.620,5.230,5.010,2.780,0.015,-0.019,-0.000,-0.000,89.000,0.069,-0.186,-0.158,-10.066,-0.004,0.001,0.003,0,0,1500,1500,1000,1500
1575620958.515,-0.011,0.002,0.012,-0.000,0.000,0.000,0.000,-0.000,0.002,358.000,522.000,502.000,283.000,3.580,5.220,5.020,2.830,0.015,-0.019,-0.000,-0.000,89.000,0.068,-0.191,-0.164,-10.062,0.001,0.005,0.001,0,0,1500,1500,1000,1500
1575620958.537,-0.011,0.004,0.011,-0.000,0.000,0.000,0.000,-0.000,0.002,358.000,522.000,502.000,283.000,3.580,5.220,5.020,2.830,0.015,-0.019,-0.000,-0.000,89.000,0.068,-0.197,-0.164,-10.059,-0.002,-0.000,0.002,0,0,1500,1500,1000,1500
1575620958.561,-0.010,0.004,0.016,-0.000,0.000,0.000,0.000,0.002,0.000,358.000,524.000,491.000,282.000,3.580,5.240,4.910,2.820,0.015,-0.019,-0.000,-0.000,89.000,0.072,-0.207,-0.165,-10.059,-0.001,-0.000,-0.000,0,0,1500,1500,1000,1500
1575620958.586,-0.008,0.004,0.019,-0.000,0.000,0.000,0.000,0.002,-0.000,358.000,524.000,491.000,282.000,3.580,5.240,4.910,2.820,0.015,-0.019,-0.000,-0.000,89.000,0.072,-0.182,-0.162,-10.050,-0.001,-0.001,-0.000,0,0,1500,1500,1000,1500
1575620958.604,-0.006,0.004,0.022,-0.000,0.000,0.000,0.000,0.002,-0.000,358.000,524.000,491.000,282.000,3.580,5.240,4.910,2.820,0.016,-0.018,-0.000,-0.000,89.000,0.069,-0.185,-0.167,-10.065,0.002,0.001,0.002,0,0,1500,1500,1000,1500
1575620958.625,-0.008,0.003,0.010,-0.000,-0.003,0.000,-0.000,-0.001,-0.003,365.000,527.000,505.000,283.000,3.650,5.270,5.050,2.830,0.016,-0.018,-0.000,-0.000,89.000,0.069,-0.192,-0.161,-10.095,0.001,-0.000,-0.000,0,0,1500,1500,1000,1500
1575620958.653,-0.009,0.003,-0.001,-0.000,-0.003,0.000,-0.000,-0.002,-0.003,365.000,527.000,505.000,283.000,3.650,5.270,5.050,2.830,0.016,-0.019,-0.000,-0.000,89.000,0.069,-0.189,-0.160,-10.120,-0.000,-0.001,0.001,0,0,1500,1500,1000,1500
1575620958.674,-0.010,0.003,-0.010,-0.000,-0.003,0.000,-0.000,-0.002,-0.003,365.000,527.000,505.000,283.000,3.650,5.270,5.050,2.830,0.016,-0.020,-0.000,-0.000,89.000,0.069,-0.201,-0.153,-10.123,-0.000,0.001,0.001,0,0,1500,1500,1000,1500
1575620958.692,-0.008,0.001,-0.008,-0.000,0.000,0.000,-0.000,0.001,-0.002,364.000,524.000,493.000,282.000,3.640,5.240,4.930,2.820,0.016,-0.019,-0.000,-0.000,89.000,0.067,-0.203,-0.161,-10.097,0.001,-0.000,0.001,0,0,1500,1500,1000,1500
1575620958.714,-0.006,0.000,-0.006,-0.000,0.000,0.000,-0.000,0.002,-0.002,364.000,524.000,493.000,282.000,3.640,5.240,4.930,2.820,0.017,-0.019,-0.000,-0.000,89.000,0.067,-0.199,-0.162,-10.082,-0.002,-0.003,-0.002,0,0,1500,1500,1000,1500
1575620958.737,-0.004,-0.001,-0.004,-0.000,0.000,0.000,-0.000,0.002,-0.001,364.000,524.000,493.000,282.000,3.640,5.240,4.930,2.820,0.017,-0.019,-0.000,-0.000,89.000,0.067,-0.201,-0.174,-10.095,0.002,-0.000,-0.000,0,0,1500,1500,1000,1500
1575620958.758,-0.001,-0.002,0.005,-0.000,0.000,0.000,-0.000,0.003,-0.001,360.000,521.000,488.000,281.000,3.600,5.210,4.880,2.810,0.017,-0.018,-0.000,-0.000,89.000,0.068,-0.195,-0.170,-10.091,0.001,0.001,-0.000,0,0,1500,1500,1000,1500
1575620958.781,0.001,-0.002,0.013,-0.000,0.000,0.000,-0.000,0.004,-0.001,360.000,521.000,488.000,281.000,3.600,5.210,4.880,2.810,0.017,-0.018,-0.000,-0.000,89.000,0.068,-0.199,-0.159,-10.081,-0.004,-0.000,-0.000,0,0,1500,1500,1000,1500
1575620958.805,0.001,-0.001,0.009,-0.000,0.000,0.000,-0.000,0.001,0.001,360.000,524.000,500.000,284.000,3.600,5.240,5.000,2.840,0.017,-0.018,-0.000,-0.000,89.000,0.069,-0.203,-0.178,-10.067,-0.003,0.001,-0.000,0,0,1500,1500,1000,1500
1575620958.825,0.000,0.000,0.006,-0.000,0.000,0.000,-0.000,-0.000,0.001,360.000,524.000,500.000,284.000,3.600,5.240,5.000,2.840,0.017,-0.018,-0.000,-0.000,89.000,0.069,-0.192,-0.187,-10.077,0.001,-0.001,0.003,0,0,1500,1500,1000,1500
1575620958.846,-0.001,0.001,0.011,-0.000,0.000,0.000,-0.000,-0.002,0.001,358.000,523.000,500.000,278.000,3.580,5.230,5.000,2.780,0.017,-0.019,-0.000,-0.000,89.000,0.070,-0.179,-0.183,-10.097,0.001,0.001,-0.000,0,0,1500,1500,1000,1500
1575620958.869,-0.003,0.001,0.014,-0.000,0.003,0.000,0.000,-0.002,0.003,358.000,523.000,500.000,278.000,3.580,5.230,5.000,2.780,0.018,-0.019,-0.000,-0.000,89.000,0.069,-0.181,-0.199,-10.094,-0.000,-0.001,-0.000,0,0,1500,1500,1000,1500
1575620958.897,-0.004,0.002,0.017,-0.000,0.003,0.000,0.000,-0.002,0.003,358.000,523.000,500.000,278.000,3.580,5.230,5.000,2.780,0.018,-0.019,-0.000,-0.000,89.000,0.069,-0.175,-0.190,-10.100,0.001,0.002,-0.000,0,0,1500,1500,1000,1500
1575620958.918,-0.005,0.002,0.019,-0.000,0.003,0.000,0.000,-0.002,0.003,358.000,523.000,500.000,278.000,3.580,5.230,5.000,2.780,0.018,-0.019,-0.000,-0.000,89.000,0.069,-0.179,-0.186,-10.102,-0.002,0.002,0.001,0,0,1500,1500,1000,1500
1575620958.935,-0.006,0.003,0.020,-0.000,0.000,0.000,0.000,-0.002,0.001,358.000,523.000,500.000,278.000,3.580,5.230,5.000,2.780,0.018,-0.019,-0.000,-0.000,89.000,0.067,-0.195,-0.178,-10.087,-0.002,-0.001,0.001,0,0,1500,1500,1000,1500
1575620958.957,-0.007,0.003,0.021,-0.000,0.000,0.000,0.000,-0.002,0.001,358.000,523.000,500.000,278.000,3.580,5.230,5.000,2.780,0.017,-0.020,-0.000,-0.000,89.000,0.069,-0.197,-0.163,-10.088,0.002,0.001,0.003,0,0,1500,1500,1000,1500
1575620958.980,-0.008,0.004,0.022,-0.000,0.000,0.000,0.000,-0.001,0.001,358.000,523.000,500.000,278.000,3.580,5.230,5.000,2.780,0.017,-0.020,-0.000,-0.000,89.000,0.069,-0.189,-0.163,-10.099,0.003,0.003,-0.003,0,0,1500,1500,1000,1500
1575620959.001,-0.009,0.004,0.022,-0.000,0.000,0.000,0.000,-0.001,0.000,358.000,523.000,500.000,278.000,3.580,5.230,5.000,2.780,0.017,-0.019,-0.000,-0.000,89.000,0.069,-0.177,-0.171,-10.101,-0.003,-0.001,-0.000,0,0,1500,1500,1000,1500
1575620959.023,-0.010,0.004,0.022,-0.000,0.000,0.000,0.000,-0.001,0.000,358.000,523.000,500.000,278.000,3.580,5.230,5.000,2.780,0.017,-0.020,-0.000,-0.000,89.000,0.069,-0.192,-0.172,-10.081,-0.000,-0.000,-0.000,0,0,1500,1500,1000,1500
1575620959.047,-0.011,0.005,0.022,-0.000,0.000,0.000,0.000,-0.001,0.000,358.000,523.000,500.000,278.000,3.580,5.230,5.000,2.780,0.017,-0.020,-0.000,-0.000,89.000,0.068,-0.186,-0.168,-10.089,0.001,0.001,-0.000,0,0,1500,1500,1000,1500
1575620959.069,-0.012,0.005,0.022,-0.000,0.000,0.000,0.000,-0.001,0.000,358.000,523.000,500.000,278.000,3.580,5.230,5.000,2.780,0.017,-0.020,-0.000,-0.000,89.000,0.068,-0.187,-0.175,-10.105,0.001,-0.003,0.002,0,0,1500,1500,1000,1500
1575620959.090,-0.013,0.005,0.022,-0.000,0.000,0.000,0.000,-0.001,0.000,358.000,523.000,500.000,278.000,3.580,5.230,5.000,2.780,0.017,-0.020,-0.000,-0.000,89.000,0.070,-0.193,-0.183,-10.098,-0.000,0.001,0.004,0,0,1500,1500,1000,1500
1575620959.120,-0.013,0.006,0.010,-0.000,0.000,0.000,0.000,-0.000,0.001,364.000,523.000,505.000,284.000,3.640,5.230,5.050,2.840,0.017,-0.020,-0.000,-0.000,89.000,0.069,-0.192,-0.179,-10.111,-0.002,0.002,0.001,0,0,1500,1500,1000,1500
1575620959.137,-0.013,0.007,-0.000,-0.000,0.000,0.000,0.000,-0.000,0.001,364.000,523.000,505.000,284.000,3.640,5.230,5.050,2.840,0.017,-0.019,-0.000,-0.000,89.000,0.069,-0.178,-0.172,-10.136,-0.002,-0.001,-0.002,0,0,1500,1500,1000,1500
1575620959.160,-0.014,0.007,-0.008,-0.000,0.000,0.000,0.000,-0.000,0.001,364.000,523.000,505.000,284.000,3.640,5.230,5.050,2.840,0.017,-0.019,-0.000,-0.000,89.000,0.069,-0.196,-0.185,-10.120,-0.000,-0.002,-0.003,0,0,1500,1500,1000,1500
1575620959.179,-0.014,0.008,-0.015,-0.000,0.000,0.000,0.000,-0.000,0.001,364.000,523.000,505.000,284.000,3.640,5.230,5.050,2.840,0.017,-0.019,-0.000,-0.000,89.000,0.068,-0.198,-0.187,-10.104,-0.003,-0.000,0.003,0,0,1500,1500,1000,1500
1575620959.201,-0.012,0.008,-0.008,-0.000,0.000,0.000,0.000,0.001,-0.000,360.000,522.000,495.000,280.000,3.600,5.220,4.950,2.800,0.017,-0.019,-0.000,-0.000,89.000,0.064,-0.183,-0.178,-10.095,-0.002,0.003,0.001,0,0,1500,1500,1000,1500
1575620959.224,-0.011,0.007,-0.003,-0.000,0.000,0.000,0.000,0.002,-0.000,360.000,522.000,495.000,280.000,3.600,5.220,4.950,2.800,0.017,-0.018,-0.000,-0.000,89.000,0.064,-0.173,-0.177,-10.115,-0.000,-0.002,0.001,0,0,1500,1500,1000,1500
1575620959.244,-0.010,0.007,-0.004,-0.000,0.000,0.000,0.000,0.002,-0.000,364.000,522.000,499.000,282.000,3.640,5.220,4.990,2.820,0.018,-0.017,-0.000,-0.000,89.000,0.067,-0.172,-0.176,-10.113,0.002,-0.000,-0.000,0,0,1500,1500,1000,1500
1575620959.267,-0.009,0.006,-0.005,-0.000,0.000,0.000,0.000,0.001,-0.000,364.000,522.000,499.000,282.000,3.640,5.220,4.990,2.820,0.018,-0.017,-0.000,-0.000,89.000,0.067,-0.186,-0.181,-10.099,0.001,-0.001,0.001,0,0,1500,1500,1000,1500
1575620959.293,-0.008,0.006,-0.005,-0.000,0.000,0.000,0.000,0.001,-0.000,364.000,522.000,499.000,282.000,3.640,5.220,4.990,2.820,0.018,-0.017,-0.000,-0.000,89.000,0.068,-0.192,-0.180,-10.090,-0.000,-0.002,0.002,0,0,1500,1500,1000,1500
1575620959.312,-0.007,0.006,-0.005,-0.000,0.000,0.000,0.000,0.001,-0.000,364.000,522.000,499.000,282.000,3.640,5.220,4.990,2.820,0.018,-0.017,0.000,-0.000,89.000,0.068,-0.186,-0.186,-10.083,-0.000,-0.003,-0.002,0,0,1500,1500,1000,1500
1575620959.333,-0.009,0.006,-0.007,-0.000,0.000,0.000,0.000,-0.002,0.001,362.000,524.000,508.000,281.000,3.620,5.240,5.080,2.810,0.018,-0.019,-0.000,-0.000,89.000,0.071,-0.205,-0.188,-10.088,0.001,-0.002,0.002,0,0,1500,1500,1000,1500
1575620959.359,-0.010,0.006,-0.003,-0.000,0.000,0.000,0.000,-0.001,-0.000,362.000,521.000,502.000,278.000,3.620,5.210,5.020,2.780,0.018,-0.020,0.000,-0.000,89.000,0.067,-0.217,-0.181,-10.099,-0.002,-0.001,-0.000,0,0,1500,1500,1000,1500
1575620959.381,-0.010,0.006,0.000,-0.000,0.000,0.000,0.000,-0.001,-0.000,362.000,521.000,502.000,278.000,3.620,5.210,5.020,2.780,0.018,-0.020,-0.000,-0.000,89.000,0.067,-0.209,-0.177,-10.101,-0.000,-0.001,0.001,0,0,1500,1500,1000,1500
1575620959.402,-0.011,0.006,0.003,-0.000,0.000,0.000,0.000,-0.001,-0.000,362.000,521.000,502.000,278.000,3.620,5.210,5.020,2.780,0.018,-0.021,-0.000,-0.000,89.000,0.067,-0.216,-0.182,-10.094,-0.001,-0.003,-0.002,0,0,1500,1500,1000,1500
1575620959.421,-0.010,0.004,0.001,-0.000,0.000,0.000,0.000,0.001,-0.002,366.000,525.000,497.000,281.000,3.660,5.250,4.970,2.810,0.018,-0.020,-0.000,-0.000,89.000,0.068,-0.203,-0.182,-10.081,-0.000,-0.001,0.001,0,0,1500,1500,1000,1500
1575620959.443,-0.009,0.002,-0.001,-0.000,0.000,0.000,0.000,0.001,-0.002,366.000,525.000,497.000,281.000,3.660,5.250,4.970,2.810,0.019,-0.020,-0.000,-0.000,89.000,0.068,-0.204,-0.174,-10.084,-0.001,0.001,0.002,0,0,1500,1500,1000,1500
1575620959.466,-0.008,0.001,-0.002,-0.000,0.000,0.000,0.000,0.001,-0.002,366.000,525.000,497.000,281.000,3.660,5.250,4.970,2.810,0.019,-0.020,0.000,-0.000,89.000,0.068,-0.213,-0.177,-10.070,0.004,-0.002,0.001,0,0,1500,1500,1000,1500
1575620959.487,-0.007,-0.001,-0.003,-0.000,0.000,0.000,0.000,0.001,-0.002,366.000,525.000,497.000,281.000,3.660,5.250,4.970,2.810,0.019,-0.020,0.000,-0.000,89.000,0.069,-0.198,-0.183,-10.082,-0.001,-0.000,0.001,0,0,1500,1500,1000,1500
1575620959.511,-0.006,-0.003,-0.004,-0.000,0.000,0.000,0.000,0.001,-0.002,366.000,525.000,497.000,281.000,3.660,5.250,4.970,2.810,0.019,-0.019,0.000,-0.000,89.000,0.069,-0.190,-0.187,-10.084,-0.001,-0.000,-0.004,0,0,1500,1500,1000,1500
1575620959.534,-0.005,-0.004,-0.005,-0.000,0.000,0.000,0.000,0.001,-0.002,366.000,525.000,497.000,281.000,3.660,5.250,4.970,2.810,0.019,-0.019,-0.000,-0.000,89.000,0.069,-0.202,-0.170,-10.096,0.004,-0.002,-0.000,0,0,1500,1500,1000,1500
1575620959.555,-0.006,-0.004,-0.007,-0.000,0.000,0.000,0.000,-0.001,-0.001,364.000,526.000,502.000,282.000,3.640,5.260,5.020,2.820,0.019,-0.020,-0.000,-0.000,89.000,0.070,-0.205,-0.183,-10.076,-0.001,-0.001,-0.002,0,0,1500,1500,1000,1500
1575620959.576,-0.007,-0.004,-0.010,-0.000,0.000,0.000,0.000,-0.001,-0.000,364.000,526.000,502.000,282.000,3.640,5.260,5.020,2.820,0.019,-0.020,-0.000,-0.000,89.000,0.068,-0.200,-0.194,-10.086,-0.000,-0.002,0.002,0,0,1500,1500,1000,1500
1575620959.603,-0.008,-0.004,-0.012,-0.000,0.000,0.000,0.000,-0.001,-0.000,364.000,526.000,502.000,282.000,3.640,5.260,5.020,2.820,0.019,-0.020,-0.000,-0.000,89.000,0.068,-0.195,-0.187,-10.100,0.001,-0.000,-0.000,0,0,1500,1500,1000,1500
1575620959.625,-0.007,-0.004,-0.012,-0.000,0.000,0.000,0.000,0.000,0.001,365.000,520.000,502.000,282.000,3.650,5.200,5.020,2.820,0.019,-0.019,-0.000,-0.000,89.000,0.067,-0.181,-0.179,-10.083,0.001,-0.005,-0.002,0,0,1500,1500,1000,1500
1575620959.645,-0.006,-0.003,-0.011,-0.000,0.000,0.000,0.000,0.001,0.001,365.000,520.000,502.000,282.000,3.650,5.200,5.020,2.820,0.018,-0.019,-0.000,-0.000,89.000,0.067,-0.176,-0.180,-10.081,-0.000,-0.000,-0.000,0,0,1500,1500,1000,1500
1575620959.665,-0.002,-0.005,-0.000,-0.000,0.000,0.000,0.000,0.004,-0.001,363.000,522.000,484.000,281.000,3.630,5.220,4.840,2.810,0.018,-0.017,-0.000,-0.000,89.000,0.067,-0.166,-0.173,-10.085,0.001,-0.003,0.002,0,0,1500,1500,1000,1500
1575620959.687,-0.000,-0.006,0.007,-0.000,0.000,0.000,0.000,0.003,-0.001,362.000,523.000,490.000,280.000,3.620,5.230,4.900,2.800,0.018,-0.017,-0.000,-0.000,89.000,0.069,-0.174,-0.172,-10.086,0.001,0.002,0.002,0,0,1500,1500,1000,1500
1575620959.710,0.002,-0.007,0.013,-0.000,0.000,0.000,0.000,0.003,-0.001,362.000,523.000,490.000,280.000,3.620,5.230,4.900,2.800,0.018,-0.016,-0.000,-0.000,89.000,0.069,-0.178,-0.179,-10.066,0.003,-0.001,0.002,0,0,1500,1500,1000,1500
1575620959.730,0.004,-0.008,0.018,-0.000,0.000,0.000,0.000,0.002,-0.001,362.000,523.000,490.000,280.000,3.620,5.230,4.900,2.800,0.019,-0.016,-0.000,-0.000,89.000,0.069,-0.163,-0.178,-10.100,-0.000,-0.001,-0.000,0,0,1500,1500,1000,1500
1575620959.755,0.005,-0.009,0.022,-0.000,0.000,0.000,0.000,0.002,-0.001,362.000,523.000,490.000,280.000,3.620,5.230,4.900,2.800,0.019,-0.015,-0.000,-0.000,89.000,0.069,-0.168,-0.177,-10.093,-0.001,0.001,-0.000,0,0,1500,1500,1000,1500
1575620959.780,0.007,-0.010,0.024,-0.000,0.000,0.000,0.000,0.002,-0.001,362.000,523.000,490.000,280.000,3.620,5.230,4.900,2.800,0.019,-0.015,-0.000,-0.000,89.000,0.069,-0.162,-0.177,-10.077,-0.000,-0.002,-0.000,0,0,1500,1500,1000,1500
1575620959.797,0.007,-0.010,0.017,-0.000,0.000,0.000,0.000,0.001,0.000,364.000,523.000,499.000,284.000,3.640,5.230,4.990,2.840,0.018,-0.015,-0.000,-0.000,89.000,0.070,-0.158,-0.176,-10.086,-0.000,0.003,0.001,0,0,1500,1500,1000,1500
1575620959.818,0.008,-0.010,0.018,-0.000,0.000,0.000,0.000,0.001,-0.001,363.000,522.000,493.000,279.000,3.630,5.220,4.930,2.790,0.018,-0.015,-0.000,-0.000,89.000,0.067,-0.162,-0.179,-10.101,0.002,0.002,-0.004,0,0,1500,1500,1000,1500
1575620959.846,0.009,-0.011,0.019,-0.000,0.000,0.000,0.000,0.001,-0.001,363.000,522.000,493.000,279.000,3.630,5.220,4.930,2.790,0.019,-0.015,-0.000,-0.000,89.000,0.067,-0.164,-0.190,-10.085,-0.000,-0.003,-0.000,0,0,1500,1500,1000,1500
1575620959.866,0.010,-0.012,0.019,-0.000,0.000,0.000,0.000,0.001,-0.001,363.000,522.000,493.000,279.000,3.630,5.220,4.930,2.790,0.019,-0.016,-0.000,-0.000,89.000,0.067,-0.181,-0.191,-10.088,0.001,-0.000,-0.003,0,0,1500,1500,1000,1500
1575620959.889,0.011,-0.013,0.020,-0.000,0.000,0.000,0.000,0.001,-0.001,363.000,522.000,493.000,279.000,3.630,5.220,4.930,2.790,0.019,-0.016,-0.000,-0.000,89.000,0.068,-0.170,-0.200,-10.095,0.001,-0.000,-0.000,0,0,1500,1500,1000,1500
1575620959.909,0.010,-0.012,0.018,-0.000,0.000,0.000,0.000,-0.001,0.001,360.000,523.000,499.000,280.000,3.600,5.230,4.990,2.800,0.019,-0.016,-0.000,-0.000,89.000,0.068,-0.171,-0.186,-10.080,-0.001,0.001,0.002,0,0,1500,1500,1000,1500
1575620959.930,0.008,-0.011,0.011,-0.000,0.000,0.000,0.000,-0.002,0.001,362.000,524.000,503.000,281.000,3.620,5.240,5.030,2.810,0.018,-0.017,-0.000,-0.000,89.000,0.067,-0.188,-0.172,-10.097,-0.000,-0.000,0.002,0,0,1500,1500,1000,1500
1575620959.953,0.006,-0.010,0.005,-0.000,0.000,0.000,0.000,-0.002,0.001,362.000,524.000,503.000,281.000,3.620,5.240,5.030,2.810,0.018,-0.018,-0.000,-0.000,89.000,0.067,-0.189,-0.178,-10.082,-0.001,-0.001,-0.000,0,0,1500,1500,1000,1500
1575620959.974,0.004,-0.009,0.002,-0.000,0.000,0.000,0.000,-0.002,0.001,362.000,524.000,503.000,281.000,3.620,5.240,5.030,2.810,0.017,-0.019,-0.000,-0.000,89.000,0.070,-0.187,-0.175,-10.069,-0.002,-0.003,-0.000,0,0,1500,1500,1000,1500
1575620960.001,0.002,-0.008,-0.001,-0.000,0.000,0.000,0.000,-0.002,0.001,362.000,524.000,503.000,281.000,3.620,5.240,5.030,2.810,0.017,-0.019,-0.000,-0.000,89.000,0.070,-0.174,-0.167,-10.060,-0.002,-0.001,0.004,0,0,1500,1500,1000,1500
1575620960.022,0.001,-0.007,-0.004,-0.000,0.000,0.000,0.000,-0.002,0.001,362.000,524.000,503.000,281.000,3.620,5.240,5.030,2.810,0.017,-0.019,-0.000,-0.000,89.000,0.070,-0.190,-0.165,-10.045,0.003,-0.003,-0.004,0,0,1500,1500,1000,1500
1575620960.041,0.002,-0.007,-0.005,-0.000,0.000,0.000,0.000,0.000,0.000,364.000,523.000,497.000,283.000,3.640,5.230,4.970,2.830,0.016,-0.019,-0.000,-0.000,89.000,0.070,-0.193,-0.150,-10.067,-0.001,0.001,-0.002,0,0,1500,1500,1000,1500
1575620960.062,0.002,-0.008,-0.008,-0.000,0.000,0.000,0.000,0.000,-0.001,366.000,527.000,497.000,282.000,3.660,5.270,4.970,2.820,0.017,-0.019,-0.000,-0.000,89.000,0.068,-0.192,-0.172,-10.072,-0.001,-0.000,-0.003,0,0,1500,1500,1000,1500
1575620960.087,0.002,-0.009,-0.011,-0.000,0.000,0.000,0.000,0.000,-0.001,366.000,527.000,497.000,282.000,3.660,5.270,4.970,2.820,0.017,-0.019,-0.000,-0.000,89.000,0.068,-0.198,-0.158,-10.102,0.001,-0.002,0.002,0,0,1500,1500,1000,1500
1575620960.108,0.002,-0.011,-0.013,-0.000,0.000,0.000,0.000,0.000,-0.001,366.000,527.000,497.000,282.000,3.660,5.270,4.970,2.820,0.017,-0.019,-0.000,-0.000,89.000,0.068,-0.185,-0.172,-10.098,-0.001,-0.000,0.002,0,0,1500,1500,1000,1500
1575620960.129,0.002,-0.012,-0.014,-0.000,0.000,0.000,0.000,0.000,-0.001,364.000,522.000,496.000,283.000,3.660,5.270,4.970,2.820,0.017,-0.019,-0.000,-0.000,89.000,0.068,-0.187,-0.168,-10.075,0.002,0.001,-0.002,0,0,1500,1500,1000,1500
1575620960.150,0.003,-0.012,-0.012,-0.000,0.000,0.000,0.000,0.001,-0.000,364.000,522.000,496.000,283.000,3.640,5.220,4.960,2.830,0.017,-0.019,-0.000,-0.000,89.000,0.067,-0.200,-0.165,-10.067,0.001,-0.001,0.001,0,0,1500,1500,1000,1500
1575620960.173,0.002,-0.011,-0.008,-0.000,0.000,0.000,0.000,-0.000,0.000,363.000,523.000,500.000,279.000,3.630,5.230,5.000,2.790,0.017,-0.019,-0.000,-0.000,89.000,0.067,-0.194,-0.157,-10.068,0.001,-0.000,-0.003,0,0,1500,1500,1000,1500
1575620960.195,0.002,-0.011,-0.004,-0.000,0.000,0.000,0.000,-0.001,0.000,363.000,523.000,500.000,279.000,3.630,5.230,5.000,2.790,0.016,-0.019,-0.000,-0.000,89.000,0.067,-0.187,-0.156,-10.071,0.002,-0.000,-0.000,0,0,1500,1500,1000,1500
1575620960.216,0.002,-0.013,-0.002,-0.000,0.000,0.000,0.000,0.000,-0.001,365.000,526.000,494.000,280.000,3.650,5.260,4.940,2.800,0.017,-0.019,-0.000,-0.000,89.000,0.069,-0.186,-0.161,-10.096,-0.001,-0.001,-0.000,0,0,1500,1500,1000,1500
1575620960.241,0.003,-0.014,0.000,-0.000,0.000,0.000,0.000,0.001,-0.002,365.000,526.000,494.000,280.000,3.650,5.260,4.940,2.800,0.017,-0.019,-0.000,-0.000,89.000,0.069,-0.191,-0.153,-10.092,0.003,0.002,-0.003,0,0,1500,1500,1000,1500
1575620960.263,0.003,-0.016,0.002,-0.000,0.000,0.000,0.000,0.001,-0.002,365.000,526.000,494.000,280.000,3.650,5.260,4.940,2.800,0.017,-0.019,-0.000,-0.000,89.000,0.069,-0.187,-0.168,-10.094,-0.000,-0.001,0.003,0,0,1500,1500,1000,1500
1575620960.283,0.004,-0.017,0.003,-0.000,0.000,0.000,0.000,0.001,-0.002,365.000,526.000,494.000,280.000,3.650,5.260,4.940,2.800,0.017,-0.018,-0.000,-0.000,89.000,0.067,-0.179,-0.165,-10.085,0.001,-0.000,-0.002,0,0,1500,1500,1000,1500
1575620960.304,0.002,-0.015,0.004,-0.000,0.000,0.000,0.000,-0.002,0.001,360.000,523.000,504.000,280.000,3.600,5.230,5.040,2.800,0.017,-0.018,-0.000,-0.000,89.000,0.071,-0.165,-0.165,-10.087,0.003,-0.000,-0.002,0,0,1500,1500,1000,1500
1575620960.331,-0.000,-0.013,0.005,-0.000,0.000,0.000,0.000,-0.002,0.002,360.000,523.000,504.000,280.000,3.600,5.230,5.040,2.800,0.016,-0.019,-0.000,-0.000,89.000,0.071,-0.186,-0.161,-10.095,0.001,-0.000,-0.000,0,0,1500,1500,1000,1500
1575620960.353,-0.002,-0.012,0.006,-0.000,0.000,0.000,0.000,-0.002,0.002,360.000,523.000,504.000,280.000,3.600,5.230,5.040,2.800,0.016,-0.019,-0.000,-0.000,89.000,0.071,-0.174,-0.163,-10.088,0.002,0.002,0.002,0,0,1500,1500,1000,1500
1575620960.372,-0.005,-0.011,0.002,-0.000,0.000,0.000,0.000,-0.003,0.001,362.000,527.000,505.000,280.000,3.620,5.270,5.050,2.800,0.015,-0.019,-0.000,-0.000,89.000,0.069,-0.166,-0.152,-10.073,0.002,-0.000,-0.000,0,0,1500,1500,1000,1500
1575620960.393,-0.005,-0.010,0.003,-0.000,0.000,0.000,0.000,-0.001,0.001,360.000,525.000,499.000,281.000,3.600,5.250,4.990,2.810,0.015,-0.019,-0.000,-0.000,89.000,0.069,-0.168,-0.152,-10.072,0.002,0.001,0.001,0,0,1500,1500,1000,1500
1575620960.416,-0.006,-0.009,0.004,-0.000,0.000,0.000,0.000,-0.001,0.001,360.000,525.000,499.000,281.000,3.600,5.250,4.990,2.810,0.015,-0.018,-0.000,-0.000,89.000,0.068,-0.172,-0.149,-10.059,0.001,-0.001,-0.003,0,0,1500,1500,1000,1500
1575620960.439,-0.006,-0.009,0.004,-0.000,0.000,0.000,0.000,-0.001,0.001,360.000,525.000,499.000,281.000,3.600,5.250,4.990,2.810,0.015,-0.018,-0.000,-0.000,89.000,0.068,-0.172,-0.153,-10.069,-0.000,0.001,-0.000,0,0,1500,1500,1000,1500
1575620960.459,-0.006,-0.007,-0.001,-0.000,0.000,0.000,0.000,0.000,0.001,364.000,522.000,503.000,284.000,3.640,5.220,5.030,2.840,0.014,-0.018,-0.000,-0.000,89.000,0.070,-0.178,-0.146,-10.068,0.001,-0.000,-0.003,0,0,1500,1500,1000,1500
1575620960.484,-0.006,-0.006,-0.005,-0.000,0.000,0.000,0.000,0.000,0.002,364.000,522.000,503.000,284.000,3.640,5.220,5.030,2.840,0.014,-0.018,-0.000,-0.000,89.000,0.070,-0.193,-0.160,-10.066,-0.000,-0.001,0.001,0,0,1500,1500,1000,1500
1575620960.509,-0.006,-0.005,-0.009,-0.000,0.000,0.000,0.000,0.000,0.001,364.000,522.000,503.000,284.000,3.640,5.220,5.030,2.840,0.014,-0.019,-0.000,-0.000,89.000,0.070,-0.203,-0.158,-10.062,-0.001,0.001,0.001,0,0,1500,1500,1000,1500
1575620960.527,-0.002,-0.006,-0.006,-0.000,0.000,0.000,0.000,0.004,-0.001,366.000,523.000,487.000,285.000,3.660,5.230,4.870,2.850,0.015,-0.018,-0.000,-0.000,89.000,0.070,-0.206,-0.167,-10.035,-0.000,-0.001,0.001,0,0,1500,1500,1000,1500
1575620960.549,0.002,-0.008,-0.003,-0.000,0.000,0.000,0.000,0.005,-0.001,366.000,523.000,487.000,285.000,3.660,5.230,4.870,2.850,0.016,-0.017,-0.000,-0.000,89.000,0.070,-0.192,-0.177,-10.047,-0.000,-0.002,-0.003,0,0,1500,1500,1000,1500
1575620960.574,0.006,-0.009,-0.001,-0.000,0.000,0.000,0.000,0.005,-0.002,366.000,523.000,487.000,285.000,3.660,5.230,4.870,2.850,0.017,-0.017,-0.000,-0.000,89.000,0.070,-0.208,-0.169,-10.041,-0.000,-0.000,0.002,0,0,1500,1500,1000,1500
1575620960.599,0.010,-0.010,0.001,-0.000,0.000,0.000,0.000,0.005,-0.002,366.000,523.000,487.000,285.000,3.660,5.230,4.870,2.850,0.017,-0.017,-0.000,-0.000,89.000,0.070,-0.212,-0.181,-10.057,-0.000,-0.000,0.004,0,0,1500,1500,1000,1500
1575620960.616,0.008,-0.008,-0.006,-0.000,0.000,0.000,0.000,-0.001,0.001,363.000,522.000,507.000,284.000,3.630,5.220,5.070,2.840,0.017,-0.018,-0.000,-0.000,89.000,0.066,-0.205,-0.177,-10.052,0.001,-0.003,0.001,0,0,1500,1500,1000,1500
1575620960.638,0.008,-0.009,-0.006,-0.000,0.000,0.000,0.000,-0.000,-0.000,365.000,525.000,497.000,282.000,3.650,5.250,4.970,2.820,0.018,-0.019,-0.000,-0.000,89.000,0.071,-0.201,-0.188,-10.063,0.001,-0.003,-0.000,0,0,1500,1500,1000,1500
1575620960.660,0.008,-0.010,-0.006,-0.000,0.000,0.000,0.000,-0.000,-0.001,365.000,525.000,497.000,282.000,3.650,5.250,4.970,2.820,0.018,-0.019,-0.000,-0.000,89.000,0.069,-0.202,-0.191,-10.052,0.002,-0.002,-0.003,0,0,1500,1500,1000,1500
1575620960.682,0.008,-0.010,-0.006,-0.000,0.000,0.000,0.000,-0.000,-0.001,365.000,525.000,497.000,282.000,3.650,5.250,4.970,2.820,0.018,-0.020,-0.000,-0.000,89.000,0.069,-0.212,-0.187,-10.060,-0.000,-0.001,-0.002,0,0,1500,1500,1000,1500
1575620960.704,0.008,-0.011,-0.006,-0.000,0.000,0.000,0.000,-0.000,-0.001,365.000,525.000,497.000,282.000,3.650,5.250,4.970,2.820,0.018,-0.020,-0.000,-0.000,89.000,0.069,-0.210,-0.175,-10.057,0.001,0.001,-0.003,0,0,1500,1500,1000,1500
1575620960.729,0.008,-0.011,-0.006,-0.000,0.000,0.000,0.000,-0.000,-0.001,365.000,525.000,497.000,282.000,3.650,5.250,4.970,2.820,0.018,-0.020,-0.000,-0.000,89.000,0.069,-0.210,-0.173,-10.060,0.001,-0.000,0.003,0,0,1500,1500,1000,1500
1575620960.748,0.005,-0.010,-0.004,-0.000,0.000,0.000,0.000,-0.003,0.001,358.000,525.000,503.000,281.000,3.580,5.250,5.030,2.810,0.017,-0.021,-0.000,-0.000,89.000,0.068,-0.200,-0.153,-10.080,-0.000,0.003,-0.002,0,0,1500,1500,1000,1500
