timestamp,x,y,z,deltaX,deltaY,deltaX_sum,deltaY_sum,v_x,v_y,DD[0],DD[1],DD[2],DD[3],dd1,dd2,dd3,dd4,Pitch,Roll,Yaw,Yaw_pix,heading_pix,Height,acc[0],acc[1],acc[2],omega[0],omega[1],omega[2],bias_x: -0.254,bias_y:-0.671,bias_z:0.771
1575016269,0.001,0,-0.012,0,0,0,0,0.001,0.001,193,221,188,172,1.93,2.21,1.88,1.72,-0.021,0.001,0,0,206,0.739,0.005,0.223,-10.023,0.001,-0.003,0.002,,,
1575016269,0.002,0,-0.016,0,0,0,0,0.001,0,193,221,188,172,1.93,2.21,1.88,1.72,-0.022,0.001,0,0,206,0.739,-0.006,0.227,-10.051,0.001,0,0.002,,,
1575016269,0.003,0.001,-0.019,0,0,0,0,0.001,0,193,221,188,172,1.93,2.21,1.88,1.72,-0.022,0.001,0,0,206,0.739,-0.011,0.243,-10.054,-0.001,-0.002,0.001,,,
1575016269,0.004,0.001,-0.022,0,0,0,0,0.001,0,193,221,188,172,1.93,2.21,1.88,1.72,-0.023,0,0,0,206,0.739,-0.008,0.241,-10.048,-0.002,-0.001,-0.001,,,
1575016269,0.006,0.001,-0.021,0,0,0,0,0.001,0,194,222,187,175,1.94,2.22,1.87,1.75,-0.023,0,0,0,206,0.751,-0.008,0.236,-10.028,0.001,0.001,0.001,,,
1575016269,0.007,0.001,-0.019,0,0,0,0,0.001,0,194,222,187,175,1.94,2.22,1.87,1.75,-0.023,0.001,0,0,206,0.752,-0.004,0.239,-10.008,0.002,0,0.001,,,
1575016269,0.008,0.001,-0.018,0,0,0,0,0.001,0,194,222,187,175,1.94,2.22,1.87,1.75,-0.024,0.001,0,0,206,0.752,0.005,0.242,-10.024,0,-0.001,0,,,
1575016269,0.007,0.001,-0.019,0,0,0,0,-0.001,-0.001,192,222,191,166,1.92,2.22,1.91,1.66,-0.024,0.001,0,0,206,0.742,0.023,0.24,-10.015,0.003,-0.001,0.004,,,
1575016269,0.006,0,-0.021,0,0,0,0,-0.001,-0.001,192,222,191,166,1.92,2.22,1.91,1.66,-0.023,0.001,0,0,206,0.742,0.009,0.228,-10.029,0.001,-0.001,0.001,,,
1575016269,0.004,0,-0.022,0,0,0,0,-0.001,-0.001,192,222,191,166,1.92,2.22,1.91,1.66,-0.023,0.001,0,0,206,0.742,0.018,0.232,-10.052,0,-0.002,-0.002,,,
1575016269,0.004,0,-0.021,0,0,0,0,0,0,194,222,190,172,1.94,2.22,1.9,1.72,-0.023,0.001,0,0,206,0.75,0.019,0.23,-10.066,0,-0.002,-0.001,,,
1575016269,0.005,0,-0.02,0,0,0,0,0,0,194,222,190,172,1.94,2.22,1.9,1.72,-0.023,0.001,0,0,206,0.75,0.016,0.241,-10.044,0.002,0,0.001,,,
1575016269,0.003,0.001,-0.018,0,0,0,0,-0.001,0.001,188,224,190,170,1.88,2.24,1.9,1.7,-0.024,0.001,0,0,206,0.752,0.023,0.257,-10.054,-0.002,0.003,-0.001,,,
1575016269,0.002,0.002,-0.016,0,0,0,0,-0.001,0.001,188,224,190,170,1.88,2.24,1.9,1.7,-0.024,0.001,0,0,206,0.752,0.016,0.244,-10.069,0.001,0,-0.002,,,
1575016269,0.001,0.002,-0.013,0,0,0,0,-0.001,0.001,188,224,190,170,1.88,2.24,1.9,1.7,-0.025,0.001,0,0,206,0.759,0.026,0.252,-10.069,0,0.004,0,,,
1575016269,-0.001,0.003,-0.01,0,0,0,0,-0.001,0.001,188,224,190,170,1.88,2.24,1.9,1.7,-0.025,0.001,0,0,206,0.759,0.03,0.241,-10.049,0.001,-0.002,-0.003,,,
1575016269,-0.002,0.003,-0.007,0,0,0,0,-0.001,0.001,188,224,190,170,1.88,2.24,1.9,1.7,-0.024,0.002,0,0,206,0.759,0.037,0.223,-10.038,-0.001,0,0.002,,,
1575016269,-0.003,0.004,-0.005,0,0,0,0,-0.001,0.001,188,224,190,170,1.88,2.24,1.9,1.7,-0.024,0.002,0,0,206,0.759,0.028,0.235,-10.025,0,-0.002,0.001,,,
1575016269,-0.003,0.004,-0.007,0,0,0,0,0,0.001,190,222,190,171,1.9,2.22,1.9,1.71,-0.024,0.002,0,0,206,0.744,0.027,0.231,-10.058,-0.001,0,-0.001,,,
1575016269,-0.003,0.004,-0.005,0,0,0,0,0,0,193,223,189,173,1.93,2.23,1.89,1.73,-0.024,0.002,0,0,206,0.758,0.026,0.241,-10.053,-0.001,0.001,-0.001,,,
1575016269,-0.002,0.004,-0.004,0,0,0,0,0.001,0,193,223,189,173,1.93,2.23,1.89,1.73,-0.024,0.003,0,0,206,0.758,0.034,0.23,-10.053,-0.002,-0.003,0.002,,,
1575016269,-0.002,0.004,-0.003,0,0,0,0,0.001,0,193,223,189,173,1.93,2.23,1.89,1.73,-0.024,0.003,0,0,206,0.755,0.041,0.243,-10.036,0.001,0,0,,,
1575016269,-0.001,0.004,-0.003,0,0,0,0,0.001,0,193,223,189,173,1.93,2.23,1.89,1.73,-0.024,0.004,0,0,206,0.755,0.046,0.244,-10.063,0.001,0,0,,,
1575016269,0,0.004,-0.002,0,0,0,0,0.001,0,193,223,189,173,1.93,2.23,1.89,1.73,-0.024,0.004,0,0,206,0.755,0.042,0.253,-10.066,0.002,0,0.002,,,
1575016269,0,0.004,0,0,0,0,0,0.001,0,193,223,189,173,1.93,2.23,1.89,1.73,-0.024,0.004,0,0,206,0.762,0.049,0.242,-10.067,0,0.002,0,,,
1575016269,0,0.004,0.001,0,0,0,0,0.001,0,193,223,189,173,1.93,2.23,1.89,1.73,-0.024,0.005,0,0,206,0.762,0.053,0.239,-10.045,0.001,0.004,0.001,,,
1575016269,0.001,0.006,0.001,0,0,0,0,0.001,0.002,189,219,189,172,1.89,2.19,1.89,1.72,-0.024,0.005,0,0,206,0.757,0.052,0.236,-10.057,0,-0.002,0.001,,,
1575016269,0.002,0.007,0,0,0,0,0,0.001,0.002,189,219,189,172,1.89,2.19,1.89,1.72,-0.025,0.005,0,0,206,0.757,0.042,0.24,-10.057,0,0.002,0,,,
1575016269,0.002,0.008,-0.002,0,0,0,0,0.001,0.002,189,219,189,172,1.89,2.19,1.89,1.72,-0.025,0.005,0,0,206,0.75,0.028,0.229,-10.056,0.001,0,-0.004,,,
1575016269,0.003,0.009,-0.005,0,0,0,0,0,0.002,189,219,189,172,1.89,2.19,1.89,1.72,-0.025,0.004,0,0,206,0.75,0.032,0.235,-10.05,0.002,-0.001,0.001,,,
1575016269,0.004,0.01,-0.007,0,0,0,0,0.001,0.001,191,220,188,175,1.91,2.2,1.88,1.75,-0.025,0.004,0,0.001,206,0.749,0.025,0.232,-10.048,0.001,-0.001,0,,,
1575016269,0.005,0.011,-0.009,0,0,0,0,0.001,0.001,191,220,188,175,1.91,2.2,1.88,1.75,-0.024,0.004,0,0.001,206,0.749,0.018,0.232,-10.059,0,0.002,0.002,,,
1575016269,0.004,0.011,-0.011,0,0,0,0,0,0.001,193,222,193,172,1.93,2.22,1.93,1.72,-0.024,0.003,0,0.001,206,0.747,0.023,0.237,-10.066,0.002,0,0,,,
1575016269,0.004,0.011,-0.013,0,0,0,0,-0.001,0,193,222,193,172,1.93,2.22,1.93,1.72,-0.024,0.003,0,0.001,206,0.747,0.024,0.235,-10.08,-0.001,0.001,-0.004,,,
1575016269,0.003,0.012,-0.014,0,0,0,0,-0.001,0,193,222,193,172,1.93,2.22,1.93,1.72,-0.024,0.003,0,0.001,206,0.749,0.033,0.226,-10.061,0.001,0.003,0.001,,,
1575016269,0.003,0.012,-0.015,0,0,0,0,-0.001,0,193,222,193,172,1.93,2.22,1.93,1.72,-0.024,0.003,0,0.001,206,0.749,0.047,0.234,-10.055,0.002,-0.002,-0.001,,,
1575016269,0.002,0.012,-0.015,0,0,0,0,-0.001,0,193,222,193,172,1.93,2.22,1.93,1.72,-0.024,0.003,0,0.001,206,0.76,0.047,0.235,-10.043,0,0,-0.002,,,
1575016269,0.002,0.012,-0.013,0,0,0,0,0,0,191,223,188,172,1.91,2.23,1.88,1.72,-0.024,0.004,0,0.001,206,0.76,0.046,0.239,-10.045,0,0.002,0.002,,,
1575016269,0.002,0.011,-0.011,0,0,0,0,0,-0.001,191,223,188,172,1.91,2.23,1.88,1.72,-0.023,0.004,0,0.001,206,0.76,0.041,0.235,-10.048,0.001,0.001,-0.002,,,
1575016269,0.004,0.011,-0.009,0,0,0,0,0.002,0,194,219,188,175,1.94,2.19,1.88,1.75,-0.024,0.004,0,0.001,206,0.757,0.043,0.25,-10.039,0.001,-0.001,-0.002,,,
1575016269,0.006,0.012,-0.008,0,0,0,0,0.002,0,194,219,188,175,1.94,2.19,1.88,1.75,-0.024,0.005,0,0.001,206,0.757,0.039,0.249,-10.034,0,0,-0.001,,,
1575016269,0.008,0.012,-0.007,0,0,0,0,0.002,0,194,219,188,175,1.94,2.19,1.88,1.75,-0.024,0.005,0,0.001,206,0.757,0.035,0.244,-10.024,-0.001,0,0.003,,,
1575016269,0.008,0.011,-0.005,0,0,0,0,0,-0.001,194,224,189,172,1.94,2.24,1.89,1.72,-0.024,0.004,0,0.001,206,0.757,0.027,0.233,-10.022,0.002,0.001,0.003,,,
1575016269,0.008,0.01,-0.004,0,0,0,0,0,-0.002,194,224,189,172,1.94,2.24,1.89,1.72,-0.023,0.004,0,0.001,206,0.757,0.021,0.225,-10.045,0.002,0.002,-0.001,,,
1575016269,0.008,0.009,-0.003,0,0,0,0,0,-0.002,194,224,189,172,1.94,2.24,1.89,1.72,-0.023,0.003,0,0.001,206,0.757,0.025,0.232,-10.031,0.002,0,0.001,,,
1575016269,0.008,0.008,-0.002,0,0,0,0,0,-0.001,194,224,189,172,1.94,2.24,1.89,1.72,-0.023,0.003,0,0.001,206,0.757,0.019,0.235,-10.051,0.001,0.002,-0.004,,,
1575016269,0.008,0.007,-0.002,0,0,0,0,0.001,-0.002,196,221,188,170,1.96,2.21,1.88,1.7,-0.022,0.003,0,0.001,206,0.759,0.013,0.232,-10.037,0.001,-0.002,0,,,
1575016269,0.009,0.005,-0.001,0,0,0,0,0.001,-0.002,196,221,188,170,1.96,2.21,1.88,1.7,-0.022,0.002,0,0.001,206,0.759,0.001,0.219,-10.038,0,0.003,0,,,
1575016269,0.01,0.004,-0.003,0,0,0,0,0.001,-0.002,196,221,188,170,1.96,2.21,1.88,1.7,-0.022,0.002,0,0.001,206,0.749,-0.008,0.226,-10.033,0.001,-0.003,-0.001,,,
1575016269,0.011,0.003,-0.005,0,0,0,0,0.001,-0.002,196,221,188,170,1.96,2.21,1.88,1.7,-0.021,0.001,0,0.001,206,0.749,-0.003,0.229,-10.035,0.003,0.005,-0.003,,,
1575016270,0.011,0.002,-0.007,0,0,0,0,0.001,-0.002,196,221,188,170,1.96,2.21,1.88,1.7,-0.021,0.001,0,0.001,206,0.749,-0.004,0.218,-10.041,0.001,0,0,,,
1575016270,0.012,0.001,-0.009,0,0,0,0,0.001,-0.002,196,221,188,170,1.96,2.21,1.88,1.7,-0.021,0.001,0,0.001,206,0.747,0.008,0.224,-10.038,-0.001,-0.002,0.001,,,
1575016270,0.013,0,-0.011,0,0,0,0,0.001,-0.001,196,221,188,170,1.96,2.21,1.88,1.7,-0.021,0.001,0,0.001,206,0.747,0.016,0.23,-10.049,0.001,0,-0.001,,,
1575016270,0.013,-0.001,-0.009,0,0,0,0,0.001,-0.001,196,221,188,170,1.96,2.21,1.88,1.7,-0.021,0.002,0,0.001,206,0.761,0.016,0.23,-10.034,0,0,-0.002,,,
1575016270,0.014,-0.002,-0.007,0,0,0,0,0.001,-0.001,196,221,188,170,1.96,2.21,1.88,1.7,-0.021,0.002,0,0.001,206,0.761,0.019,0.226,-10.022,0.003,0.001,0.002,,,
1575016270,0.014,-0.002,-0.006,0,0,0,0,0.001,-0.001,196,221,188,170,1.96,2.21,1.88,1.7,-0.021,0.002,0,0.001,206,0.761,0.015,0.225,-10.03,0.002,0,-0.001,,,
1575016270,0.015,-0.003,-0.002,0,0,0,0,0.001,-0.001,196,221,188,170,1.96,2.21,1.88,1.7,-0.022,0.002,0,0.001,206,0.766,0.023,0.235,-10.038,0,0,-0.001,,,
1575016270,0.016,-0.004,0,0,0,0,0,0.001,-0.001,196,221,188,170,1.96,2.21,1.88,1.7,-0.022,0.002,0,0.001,206,0.766,0.025,0.229,-10.05,0.002,0,-0.002,,,
1575016270,0.016,-0.004,0.003,0,0,0,0,0.001,-0.001,196,221,188,170,1.96,2.21,1.88,1.7,-0.022,0.003,0,0.001,206,0.766,0.033,0.242,-10.056,0,-0.001,-0.001,,,
1575016270,0.017,-0.005,0.005,0,0,0,0,0.001,-0.001,196,221,188,170,1.96,2.21,1.88,1.7,-0.022,0.003,0,0.001,206,0.766,0.046,0.242,-10.057,0,-0.002,-0.001,,,
1575016270,0.017,-0.005,0.004,0,0,0,0,0.001,-0.001,196,221,188,170,1.96,2.21,1.88,1.7,-0.023,0.004,0,0.001,206,0.753,0.049,0.246,-10.05,0.004,-0.001,0.001,,,
1575016270,0.017,-0.006,0.002,0,0,0,0,0.001,-0.001,196,221,188,170,1.96,2.21,1.88,1.7,-0.023,0.004,0,0.001,206,0.753,0.054,0.237,-10.054,0.003,0,0,,,
1575016270,0.018,-0.006,-0.001,0,0,0,0,0.001,-0.001,196,221,188,170,1.96,2.21,1.88,1.7,-0.023,0.004,0,0.001,206,0.749,0.038,0.228,-10.043,0,-0.001,0.002,,,
1575016270,0.018,-0.007,-0.004,0,0,0,0,0,-0.001,196,221,188,170,1.96,2.21,1.88,1.7,-0.022,0.004,0,0.001,206,0.749,0.031,0.223,-10.037,-0.001,0,0,,,
1575016270,0.019,-0.007,-0.006,0,0,0,0,0,-0.001,196,221,188,170,1.96,2.21,1.88,1.7,-0.022,0.004,0,0.001,206,0.749,0.042,0.233,-10.035,0.001,0.001,0,,,
1575016270,0.018,-0.008,-0.008,0,0,0,0,0,-0.001,193,225,186,169,1.93,2.25,1.86,1.69,-0.022,0.004,0,0.001,206,0.75,0.046,0.237,-10.027,0.002,-0.001,0,,,
1575016270,0.018,-0.009,-0.01,0,0,0,0,-0.001,-0.001,193,225,186,169,1.93,2.25,1.86,1.69,-0.022,0.004,0,0.001,206,0.75,0.05,0.233,-10.041,0.003,0,0,,,
1575016270,0.017,-0.01,-0.014,0,0,0,0,-0.001,-0.001,193,225,186,169,1.93,2.25,1.86,1.69,-0.022,0.004,0,0.001,206,0.744,0.042,0.237,-10.04,0,-0.003,-0.001,,,
1575016270,0.017,-0.011,-0.016,0,0,0,0,-0.001,-0.001,193,225,186,169,1.93,2.25,1.86,1.69,-0.022,0.004,0,0.001,206,0.744,0.044,0.239,-10.041,0.001,0,0,,,
1575016270,0.016,-0.012,-0.019,0,0,0,0,-0.001,-0.001,193,225,186,169,1.93,2.25,1.86,1.69,-0.022,0.004,0,0.001,206,0.744,0.039,0.227,-10.028,0.003,0.002,0,,,
1575016270,0.016,-0.009,-0.018,0,0,0,0,0,0.003,190,222,190,177,1.9,2.22,1.9,1.77,-0.023,0.004,0,0.001,206,0.752,0.03,0.239,-10.029,0,0.001,0.001,,,
1575016270,0.016,-0.006,-0.018,0,0,0,0,0,0.004,190,222,190,177,1.9,2.22,1.9,1.77,-0.024,0.004,0,0,206,0.752,0.038,0.233,-10.032,0.002,0.002,0,,,
1575016270,0.016,-0.004,-0.017,0,0,0,0,0,0.004,190,222,190,177,1.9,2.22,1.9,1.77,-0.024,0.004,0,0,206,0.752,0.033,0.226,-10.049,0,-0.001,0.001,,,
1575016270,0.017,-0.002,-0.016,0,0,0,0,0,0.004,188,224,188,172,1.9,2.22,1.9,1.77,-0.025,0.003,0,0,206,0.76,0.028,0.236,-10.035,-0.002,0,0.001,,,
1575016270,0.016,-0.001,-0.02,0,0,0,0,-0.001,0.002,191,221,191,170,1.91,2.21,1.91,1.7,-0.025,0.003,0,0,206,0.736,0.03,0.232,-10.047,-0.001,-0.001,-0.001,,,
1575016270,0.015,0,-0.023,0,0,0,0,-0.001,0.001,191,221,191,170,1.91,2.21,1.91,1.7,-0.025,0.003,0,0,206,0.736,0.018,0.22,-10.035,0,0,0,,,
1575016270,0.014,0.001,-0.025,0,0,0,0,-0.001,0.001,191,221,191,170,1.91,2.21,1.91,1.7,-0.024,0.002,0,0,206,0.74,0.028,0.218,-10.023,0,0.001,0.003,,,
1575016270,0.013,0.002,-0.027,0,0,0,0,-0.001,0.001,191,221,191,170,1.91,2.21,1.91,1.7,-0.024,0.002,0,0,206,0.74,0.028,0.213,-10.03,0.003,0.001,0.001,,,
1575016270,0.012,0.002,-0.028,0,0,0,0,-0.001,0.001,191,221,191,170,1.91,2.21,1.91,1.7,-0.023,0.002,0,0,206,0.74,0.018,0.22,-10.029,-0.001,0.001,-0.002,,,
1575016270,0.011,0.003,-0.028,0,0,0,0,-0.001,0.001,191,221,191,170,1.91,2.21,1.91,1.7,-0.023,0.002,0,0,206,0.744,0.017,0.224,-10.036,0.002,-0.001,0.001,,,
1575016270,0.01,0.003,-0.028,0,0,0,0,-0.001,0.001,191,221,191,170,1.91,2.21,1.91,1.7,-0.023,0.001,0,0,206,0.744,0.012,0.231,-10.05,-0.001,0.002,0,,,
1575016270,0.009,0.004,-0.026,0,0,0,0,-0.001,0.001,191,221,191,170,1.91,2.21,1.91,1.7,-0.024,0.001,0,0,206,0.748,0.014,0.232,-10.048,0.004,0.002,0.001,,,
1575016270,0.009,0.005,-0.024,0,0,0,0,-0.001,0.001,191,221,191,170,1.91,2.21,1.91,1.7,-0.024,0.001,0,0,206,0.748,0.022,0.23,-10.034,0,-0.004,0.001,,,
1575016270,0.008,0.005,-0.019,0,0,0,0,-0.001,0.001,191,221,191,170,1.91,2.21,1.91,1.7,-0.024,0.001,0,0,206,0.762,0.02,0.23,-10.031,0,0,0.001,,,
1575016270,0.007,0.005,-0.014,0,0,0,0,-0.001,0.001,191,221,191,170,1.91,2.21,1.91,1.7,-0.024,0.001,0,0,206,0.762,0.004,0.239,-10.036,0.001,0.002,0,,,
1575016270,0.007,0.006,-0.01,0,0,0,0,-0.001,0.001,191,221,191,170,1.91,2.21,1.91,1.7,-0.024,0.001,0,0,206,0.762,0.002,0.235,-10.05,0,0.002,-0.001,,,
1575016270,0.006,0.006,-0.006,0,0,0,0,-0.001,0.001,191,221,191,170,1.91,2.21,1.91,1.7,-0.024,0,0,0,206,0.762,0.009,0.234,-10.069,0.001,0,-0.002,,,
1575016270,0.005,0.007,-0.003,0,0,0,0,-0.001,0.001,191,221,191,170,1.91,2.21,1.91,1.7,-0.024,0,0,0,206,0.76,0,0.231,-10.078,-0.001,0.001,0.002,,,
1575016270,0.005,0.007,-0.002,0,0,0,0,-0.001,0.001,191,221,191,170,1.91,2.21,1.91,1.7,-0.023,0,0,0,206,0.755,-0.002,0.218,-10.093,0.003,-0.007,-0.001,,,
1575016270,0.004,0.007,-0.001,0,0,0,0,-0.001,0,191,221,191,170,1.91,2.21,1.91,1.7,-0.023,0,0,0,206,0.755,0.008,0.214,-10.078,0.003,0.001,0,,,
1575016270,0.003,0.008,-0.003,0,0,0,0,-0.001,0,191,221,191,170,1.91,2.21,1.91,1.7,-0.023,0,0,0,206,0.747,0.007,0.216,-10.057,0.002,-0.001,0.002,,,
1575016270,0.003,0.008,-0.005,0,0,0,0,-0.001,0,191,221,191,170,1.91,2.21,1.91,1.7,-0.022,0,0,0,206,0.747,0.007,0.215,-10.032,0,0,0.001,,,
1575016270,0.002,0.008,-0.001,0,0,0,0,-0.001,0,191,221,191,170,1.91,2.21,1.91,1.7,-0.022,0,0,0,206,0.77,0.003,0.204,-10.04,-0.001,-0.001,0.002,,,
1575016270,0.002,0.009,0.003,0,0,0,0,-0.001,0,191,221,191,170,1.91,2.21,1.91,1.7,-0.022,0,0,0,206,0.77,0,0.202,-10.037,-0.004,-0.001,0,,,
1575016270,0.001,0.009,0.007,0,0,0,0,-0.001,0,191,221,191,170,1.91,2.21,1.91,1.7,-0.022,0,0,0,206,0.77,0.014,0.209,-10.022,-0.001,-0.002,0.001,,,
1575016270,0.002,0.008,0.003,0,0,0,0,0,-0.001,196,223,189,172,1.96,2.23,1.89,1.72,-0.021,0,0,0,206,0.745,0.011,0.217,-10.013,0.001,-0.003,-0.001,,,
1575016270,0.003,0.007,0,0,0,0,0,0.001,-0.002,196,223,189,172,1.96,2.23,1.89,1.72,-0.021,0,0,0,206,0.745,0.002,0.209,-10.023,0.001,0,-0.001,,,
1575016270,0.003,0.006,0.002,0,0,0,0,0.001,-0.002,196,223,189,172,1.96,2.23,1.89,1.72,-0.021,0.001,0,0,206,0.764,0.004,0.222,-10.021,0.001,0,0.001,,,
1575016270,0.004,0.005,0.003,0,0,0,0,0.001,-0.002,196,223,189,172,1.96,2.23,1.89,1.72,-0.021,0.001,0,0,206,0.764,0.017,0.237,-10.032,0.001,0,0.001,,,
1575016270,0.005,0.004,0.005,0,0,0,0,0.001,-0.001,196,223,189,172,1.96,2.23,1.89,1.72,-0.021,0.002,0,0,206,0.764,0.024,0.233,-10.021,-0.001,-0.003,0,,,
1575016270,0.005,0.003,0.006,0,0,0,0,0.001,-0.001,196,223,189,172,1.96,2.23,1.89,1.72,-0.021,0.002,0,0,206,0.764,0.027,0.219,-10.047,-0.001,0.002,0.002,,,
1575016270,0.005,0.002,0.007,0,0,0,0,0,-0.001,196,222,191,170,1.96,2.22,1.91,1.7,-0.021,0.002,0,0,206,0.763,0.021,0.22,-10.03,0.001,0.003,0.003,,,
1575016270,0.004,0.002,0.005,0,0,0,0,0,-0.001,194,222,191,168,1.94,2.22,1.91,1.68,-0.021,0.002,0,0,206,0.755,0.017,0.222,-10.033,0,0.001,-0.001,,,
1575016270,0.004,0.001,0.003,0,0,0,0,-0.001,-0.001,194,222,191,168,1.94,2.22,1.91,1.68,-0.021,0.002,0,0,206,0.755,0.026,0.215,-10.011,0.002,-0.001,-0.002,,,
1575016270,0.003,0,0.004,0,0,0,0,-0.001,-0.001,194,222,191,168,1.94,2.22,1.91,1.68,-0.021,0.002,0,0,206,0.764,0.023,0.211,-10.024,-0.002,0,0.001,,,
1575016270,0.003,0,0.004,0,0,0,0,-0.001,-0.001,194,222,191,168,1.94,2.22,1.91,1.68,-0.021,0.002,0,0,206,0.764,0.016,0.218,-10.014,0.002,0.001,0.001,,,
1575016270,0.003,0.001,0,0,0,0,0,0,0.001,189,222,189,173,1.89,2.22,1.89,1.73,-0.022,0.001,0,0,206,0.747,0.01,0.225,-10.027,0.001,-0.001,0,,,
1575016271,0.003,0.002,-0.004,0,0,0,0,0,0.002,189,222,189,173,1.89,2.22,1.89,1.73,-0.022,0.001,0,0,206,0.747,0.015,0.225,-10.028,0,0,-0.001,,,
1575016271,0.003,0.004,-0.007,0,0,0,0,0,0.002,189,222,189,173,1.89,2.22,1.89,1.73,-0.023,0.001,0,0,206,0.747,0.001,0.229,-10.04,-0.001,-0.002,-0.001,,,
1575016271,0.002,0.004,-0.013,0,0,0,0,-0.001,0.001,188,223,188,170,1.88,2.23,1.88,1.7,-0.023,0.001,0,0,206,0.739,0.002,0.212,-10.044,-0.001,0,0,,,
1575016271,0.001,0.004,-0.018,0,0,0,0,-0.001,0.001,188,223,188,170,1.88,2.23,1.88,1.7,-0.022,0,0,0,206,0.739,-0.011,0.197,-10.03,-0.001,-0.003,0,,,
1575016271,0.001,0.004,-0.018,0,0,0,0,0,0,192,221,189,170,1.92,2.21,1.89,1.7,-0.022,0,0,0,206,0.756,-0.009,0.215,-10.047,0.002,0.001,-0.003,,,
1575016271,0.002,0.004,-0.017,0,0,0,0,0,0,192,221,189,170,1.92,2.21,1.89,1.7,-0.022,-0.001,0,0,206,0.756,-0.017,0.222,-10.067,-0.001,0.001,0.002,,,
1575016271,0.002,0.004,-0.016,0,0,0,0,0,0,192,221,189,170,1.92,2.21,1.89,1.7,-0.022,-0.001,0,0,206,0.756,-0.014,0.23,-10.061,0.002,0,-0.001,,,
1575016271,0.002,0.004,-0.015,0,0,0,0,0,0,192,221,189,170,1.92,2.21,1.89,1.7,-0.022,-0.001,0,0,206,0.756,-0.003,0.229,-10.053,-0.001,0.001,-0.002,,,
1575016271,0.002,0.004,-0.012,0,0,0,0,0,-0.001,194,221,189,170,1.94,2.21,1.89,1.7,-0.022,-0.001,0,0,206,0.762,-0.013,0.229,-10.031,0.001,0.001,0,,,
1575016271,0.003,0.003,-0.009,0,0,0,0,0,-0.001,194,221,189,170,1.94,2.21,1.89,1.7,-0.022,-0.001,0,0,206,0.762,-0.009,0.223,-10.057,0.001,-0.003,-0.002,,,
1575016271,0.003,0.003,-0.006,0,0,0,0,0,-0.001,194,221,189,170,1.94,2.21,1.89,1.7,-0.022,0,0,0,206,0.762,0.003,0.207,-10.056,0.001,-0.001,-0.001,,,
1575016271,0.003,0.003,-0.005,0,0,0,0,0,0,191,223,190,171,1.91,2.23,1.9,1.71,-0.021,0,0,0,206,0.759,0.003,0.208,-10.063,0.001,0.001,0.001,,,
1575016271,0.002,0.003,-0.003,0,0,0,0,0,0,191,223,190,171,1.91,2.23,1.9,1.71,-0.021,0,0,0,206,0.759,-0.003,0.217,-10.06,0,-0.001,-0.001,,,
1575016271,0.002,0.003,-0.006,0,0,0,0,-0.001,0,191,223,190,171,1.91,2.23,1.9,1.71,-0.022,0,0,0,206,0.744,0,0.229,-10.058,-0.002,0,-0.002,,,
1575016271,0.001,0.004,-0.009,0,0,0,0,-0.001,0,191,223,190,171,1.91,2.23,1.9,1.71,-0.022,0,0,0,206,0.744,0.008,0.22,-10.064,0,-0.001,0.002,,,
1575016271,0.001,0.004,-0.012,0,0,0,0,0,0,191,223,190,171,1.91,2.23,1.9,1.71,-0.022,0,0,0,206,0.744,0.002,0.209,-10.069,-0.001,0.001,-0.001,,,
1575016271,0.001,0.004,-0.013,0,0,0,0,0,0.001,192,221,190,172,1.92,2.21,1.9,1.72,-0.022,0,0,0,206,0.747,0.02,0.209,-10.073,0.002,0.003,-0.002,,,
1575016271,0.001,0.005,-0.015,0,0,0,0,0,0.001,192,221,190,172,1.92,2.21,1.9,1.72,-0.021,0,0,0,206,0.747,0,0.202,-10.054,0.004,-0.004,0,,,
1575016271,0.001,0.005,-0.018,0,0,0,0,-0.001,0,188,224,188,170,1.88,2.24,1.88,1.7,-0.021,0,0,0,206,0.74,-0.006,0.208,-10.046,0.002,0.001,0,,,
1575016271,0,0.005,-0.021,0,0,0,0,-0.001,0,188,224,188,170,1.88,2.24,1.88,1.7,-0.021,0,0,0,206,0.74,0.006,0.221,-10.048,-0.001,-0.002,0.002,,,
1575016271,-0.001,0.005,-0.023,0,0,0,0,-0.001,0,188,224,188,170,1.88,2.24,1.88,1.7,-0.022,0,0,0,206,0.744,0.01,0.224,-10.033,0,-0.002,0,,,
1575016271,-0.002,0.005,-0.024,0,0,0,0,-0.001,0,188,224,188,170,1.88,2.24,1.88,1.7,-0.022,0,0,0,206,0.744,0.016,0.243,-10.027,0,-0.004,0.002,,,
1575016271,-0.002,0.004,-0.024,0,0,0,0,-0.001,-0.001,193,226,190,170,1.93,2.26,1.9,1.7,-0.022,0,0,0,206,0.746,0.018,0.227,-10.018,-0.002,0.002,0,,,
1575016271,-0.003,0.003,-0.024,0,0,0,0,-0.001,-0.001,193,226,190,170,1.93,2.26,1.9,1.7,-0.022,0,0,0,206,0.746,0.005,0.224,-10.025,0,0,-0.001,,,
1575016271,-0.004,0.002,-0.023,0,0,0,0,-0.001,-0.001,193,226,190,170,1.93,2.26,1.9,1.7,-0.021,0,0,0,206,0.746,0.002,0.214,-10.036,0.001,-0.002,-0.001,,,
1575016271,-0.003,0.003,-0.019,0,0,0,0,0.001,0,193,222,189,175,1.93,2.22,1.89,1.75,-0.022,0,0,0,206,0.761,0.003,0.223,-10.025,0.002,0.003,0.002,,,
1575016271,-0.002,0.003,-0.014,0,0,0,0,0.001,0.001,193,222,189,175,1.93,2.22,1.89,1.75,-0.022,0,0,0,206,0.761,0.001,0.221,-10.013,0.003,0.002,0.001,,,
1575016271,-0.001,0.002,-0.01,0,0,0,0,0.001,-0.001,196,223,189,171,1.96,2.23,1.89,1.71,-0.022,0.001,0,0,206,0.763,0.014,0.214,-10.011,0.001,0.002,-0.001,,,
1575016271,-0.001,0.001,-0.006,0,0,0,0,0.001,-0.001,196,223,189,171,1.96,2.23,1.89,1.71,-0.021,0.001,0,0,206,0.763,0.023,0.208,-10.014,0,0.001,0.002,,,
1575016271,0,0.001,-0.006,0,0,0,0,0.001,-0.001,196,223,189,171,1.96,2.23,1.89,1.71,-0.021,0.002,0,0,206,0.749,0.021,0.216,-10.025,0.001,0.001,-0.001,,,
1575016271,0.001,0,-0.006,0,0,0,0,0.001,-0.001,196,223,189,171,1.96,2.23,1.89,1.71,-0.021,0.002,0,0,206,0.749,0.026,0.216,-10.014,0.003,-0.001,0.001,,,
1575016271,0.001,-0.001,-0.007,0,0,0,0,0.001,-0.001,196,223,189,171,1.96,2.23,1.89,1.71,-0.021,0.002,0,0,206,0.749,0.011,0.219,-10.041,-0.001,-0.001,-0.001,,,
1575016271,0.002,-0.002,-0.007,0,0,0,0,0.001,-0.001,196,223,189,171,1.96,2.23,1.89,1.71,-0.021,0.002,0,0,206,0.749,0.02,0.235,-10.032,0.001,0,0.001,,,
1575016271,0.002,-0.002,-0.003,0,0,0,0,0,-0.001,192,225,188,171,1.92,2.25,1.88,1.71,-0.021,0.002,0,0,206,0.766,0.014,0.225,-10.036,-0.001,0.003,0.001,,,
1575016271,0.002,-0.002,-0.006,0,0,0,0,0,0,194,221,189,170,1.94,2.21,1.89,1.7,-0.021,0.002,0,0,206,0.743,0.022,0.205,-10.035,0.001,-0.001,-0.002,,,
1575016271,0.002,-0.002,-0.009,0,0,0,0,0,0,194,221,189,170,1.94,2.21,1.89,1.7,-0.021,0.002,0,0,206,0.743,0.007,0.218,-10.012,0,0.004,-0.003,,,
1575016271,0.003,-0.002,-0.012,0,0,0,0,0,0,194,221,189,170,1.94,2.21,1.89,1.7,-0.021,0.002,0,0,206,0.744,0.009,0.226,-10.003,-0.002,0,0.001,,,
1575016271,0.003,-0.002,-0.014,0,0,0,0,0,0,194,221,189,170,1.94,2.21,1.89,1.7,-0.022,0.002,0,0,206,0.744,0.015,0.218,-10.005,-0.001,0.001,0.001,,,
1575016271,0.003,-0.003,-0.01,0,0,0,0,0,0,194,226,190,173,1.94,2.26,1.9,1.73,-0.022,0.002,0,0,206,0.763,0.015,0.225,-10.005,-0.001,0.001,-0.001,,,
1575016271,0.003,-0.003,-0.007,0,0,0,0,0,0,194,226,190,173,1.94,2.26,1.9,1.73,-0.022,0.002,0,0,206,0.763,0.016,0.22,-10.019,0.003,0.001,0.003,,,
1575016271,0.002,-0.003,-0.004,0,0,0,0,0,0,194,226,190,173,1.94,2.26,1.9,1.73,-0.022,0.002,0,0,206,0.763,0.015,0.223,-10.022,0.002,0,0,,,
1575016271,0.003,-0.004,-0.002,0,0,0,0,0,-0.001,193,223,187,169,1.93,2.23,1.87,1.69,-0.022,0.001,0,0,206,0.762,0.009,0.229,-10.022,0.002,-0.001,0.001,,,
1575016271,0.003,-0.004,0,0,0,0,0,0,-0.001,193,223,187,169,1.93,2.23,1.87,1.69,-0.022,0.002,0,0,206,0.762,0.019,0.238,-10.03,0.003,0.001,-0.001,,,
1575016271,0.003,-0.004,-0.002,0,0,0,0,0,0,193,220,189,169,1.93,2.2,1.89,1.69,-0.022,0.002,0,0,206,0.75,0.017,0.234,-10.009,0,0,-0.002,,,
1575016271,0.003,-0.004,-0.004,0,0,0,0,0,0,193,220,189,169,1.93,2.2,1.89,1.69,-0.023,0.002,0,0,206,0.75,0.024,0.24,-10.01,0.001,0,0,,,
1575016271,0.004,-0.004,-0.006,0,0,0,0,0,0,193,220,189,169,1.93,2.2,1.89,1.69,-0.023,0.002,0,0,206,0.75,0.019,0.25,-9.993,0.003,-0.001,0.003,,,
1575016271,0.004,-0.004,-0.001,0,0,0,0,0,0,193,220,189,169,1.93,2.2,1.89,1.69,-0.023,0.002,0,0,206,0.773,0.018,0.222,-9.995,0.001,-0.002,0.001,,,
1575016271,0.004,-0.003,0.003,0,0,0,0,0,0,193,220,189,169,1.93,2.2,1.89,1.69,-0.023,0.002,0,0,206,0.773,0.013,0.218,-10.001,0.001,0.002,0.003,,,
1575016271,0.005,-0.003,0.007,0,0,0,0,0,0,193,220,189,169,1.93,2.2,1.89,1.69,-0.023,0.002,0,0,206,0.773,0.011,0.211,-10.008,-0.004,0.002,0,,,
1575016271,0.004,-0.003,0.007,0,0,0,0,0,0,190,223,188,170,1.9,2.23,1.88,1.7,-0.023,0.002,0,0,206,0.759,0.01,0.221,-10.007,0.001,0.002,0,,,
1575016271,0.004,-0.003,0.007,0,0,0,0,0,-0.001,191,227,186,172,1.91,2.27,1.86,1.72,-0.023,0.002,0,0,206,0.763,0.023,0.25,-9.993,0.002,0.001,0.002,,,
1575016271,0.004,-0.004,0.008,0,0,0,0,0,-0.001,191,227,186,172,1.91,2.27,1.86,1.72,-0.023,0.002,0,0,206,0.763,0.032,0.243,-10.011,-0.004,-0.001,0.001,,,
1575016271,0.003,-0.005,0.002,0,0,0,0,0,-0.001,191,227,186,172,1.91,2.27,1.86,1.72,-0.023,0.002,0,0,206,0.739,0.033,0.243,-10.013,-0.001,0.001,-0.002,,,
1575016271,0.003,-0.005,-0.004,0,0,0,0,0,-0.001,191,227,186,172,1.91,2.27,1.86,1.72,-0.023,0.002,0,0,206,0.739,0.03,0.247,-9.999,-0.001,-0.001,0,,,
1575016271,0.003,-0.006,-0.003,0,0,0,0,0,-0.001,191,227,186,172,1.91,2.27,1.86,1.72,-0.024,0.003,0,0,206,0.765,0.033,0.254,-10.013,0.001,0.003,-0.002,,,
1575016271,0.003,-0.006,-0.001,0,0,0,0,0,-0.001,191,227,186,172,1.91,2.27,1.86,1.72,-0.023,0.003,0,0,206,0.765,0.031,0.232,-10.051,-0.001,0.001,0.003,,,
1575016271,0.003,-0.006,0.001,0,0,0,0,0,-0.001,191,227,186,172,1.91,2.27,1.86,1.72,-0.024,0.003,0,0,206,0.765,0.041,0.244,-10.026,0,0.001,0,,,
1575016272,0.003,-0.007,0.001,0,0,0,0,0,-0.001,191,227,186,172,1.91,2.27,1.86,1.72,-0.024,0.003,0,0,206,0.762,0.034,0.253,-10.04,0,-0.001,-0.001,,,
1575016272,0.002,-0.007,0.002,0,0,0,0,0,-0.001,191,227,186,172,1.91,2.27,1.86,1.72,-0.024,0.003,0,0,206,0.762,0.033,0.239,-10.032,0,-0.001,0.002,,,
1575016272,0.002,-0.008,0.003,0,0,0,0,0,-0.001,191,227,186,172,1.91,2.27,1.86,1.72,-0.023,0.003,0,0,206,0.762,0.035,0.228,-10.027,0,0,0.003,,,
1575016272,0.002,-0.008,-0.003,0,0,0,0,0,-0.001,191,227,186,172,1.91,2.27,1.86,1.72,-0.023,0.003,0,0,206,0.739,0.029,0.239,-10.037,0.001,-0.001,0,,,
1575016272,0.002,-0.008,-0.009,0,0,0,0,0,0,191,227,186,172,1.91,2.27,1.86,1.72,-0.023,0.003,0,0.001,206,0.739,0.014,0.234,-10.035,0.001,-0.001,0.001,,,
1575016272,0.002,-0.008,-0.014,0,0,0,0,0,0,191,227,186,172,1.91,2.27,1.86,1.72,-0.023,0.002,0,0.001,206,0.739,0.013,0.244,-10.048,0.001,-0.002,0.001,,,
1575016272,0.002,-0.009,-0.009,0,0,0,0,0,0,191,227,186,172,1.91,2.27,1.86,1.72,-0.024,0.002,0,0.001,206,0.751,0.015,0.256,-10.049,0.003,0,-0.002,,,
1575016272,0.001,-0.009,-0.01,0,0,0,0,0,0,191,227,186,172,1.91,2.27,1.86,1.72,-0.024,0.002,0,0.001,206,0.751,0.019,0.256,-10.058,0,-0.001,-0.003,,,
1575016272,0.001,-0.009,-0.011,0,0,0,0,0,0,191,227,186,172,1.91,2.27,1.86,1.72,-0.025,0.002,0,0.001,206,0.751,0.014,0.261,-10.06,0.001,-0.002,0,,,
1575016272,0.001,-0.009,-0.013,0,0,0,0,0,0,191,227,186,172,1.91,2.27,1.86,1.72,-0.025,0.002,0,0.001,206,0.746,0.016,0.256,-10.077,-0.001,-0.001,-0.001,,,
1575016272,0.001,-0.01,-0.015,0,0,0,0,0,0,191,227,186,172,1.91,2.27,1.86,1.72,-0.025,0.002,0,0.001,206,0.746,0.024,0.25,-10.084,-0.001,-0.002,-0.002,,,
1575016272,0.001,-0.01,-0.018,0,0,0,0,0,0,191,227,186,172,1.91,2.27,1.86,1.72,-0.025,0.002,0,0.001,206,0.742,0.016,0.247,-10.096,0,-0.001,0.002,,,
1575016272,0.001,-0.01,-0.021,0,0,0,0,0,0,191,227,186,172,1.91,2.27,1.86,1.72,-0.025,0.002,0,0.001,206,0.742,0.02,0.254,-10.103,0.001,-0.001,0.001,,,
1575016272,0,-0.01,-0.023,0,0,0,0,0,0,195,225,191,171,1.95,2.25,1.91,1.71,-0.025,0.002,0,0.001,206,0.74,0.024,0.259,-10.117,0.002,0.003,-0.001,,,
1575016272,0,-0.01,-0.025,0,0,0,0,0,0,195,225,191,171,1.95,2.25,1.91,1.71,-0.024,0.002,0,0.001,206,0.74,0.035,0.234,-10.106,0.003,0.001,0.001,,,
1575016272,-0.001,-0.01,-0.027,0,0,0,0,0,0,195,225,191,171,1.95,2.25,1.91,1.71,-0.024,0.003,0,0.001,206,0.74,0.041,0.231,-10.101,0,0.003,0,,,
1575016272,-0.001,-0.01,-0.028,0,0,0,0,0,0,195,225,191,171,1.95,2.25,1.91,1.71,-0.023,0.003,0,0.001,206,0.74,0.047,0.222,-10.106,0.001,-0.002,0,,,
1575016272,-0.001,-0.01,-0.026,0,0,0,0,0,0,195,225,191,171,1.95,2.25,1.91,1.71,-0.023,0.003,0,0.001,206,0.751,0.047,0.223,-10.117,0.003,-0.002,-0.001,,,
1575016272,-0.002,-0.01,-0.024,0,0,0,0,0,0,195,225,191,171,1.95,2.25,1.91,1.71,-0.023,0.004,0,0.001,206,0.751,0.047,0.224,-10.112,0.002,-0.003,0.001,,,
1575016272,-0.002,-0.01,-0.022,0,0,0,0,0,0,195,225,191,171,1.95,2.25,1.91,1.71,-0.023,0.003,0,0.001,206,0.751,0.03,0.236,-10.097,-0.001,-0.001,0.001,,,
1575016272,-0.003,-0.01,-0.025,0,0,0,0,0,0,195,225,191,171,1.95,2.25,1.91,1.71,-0.023,0.003,0,0.001,206,0.733,0.024,0.225,-10.098,0.001,-0.001,0.001,,,
1575016272,-0.002,-0.008,-0.02,0,0,0,0,0,0.002,192,220,191,171,1.92,2.2,1.91,1.71,-0.023,0.003,0,0.001,206,0.762,0.03,0.232,-10.088,0.002,0,-0.002,,,
1575016272,-0.002,-0.007,-0.015,0,0,0,0,0,0.002,192,220,191,171,1.92,2.2,1.91,1.71,-0.024,0.003,0,0.001,206,0.762,0.027,0.229,-10.076,0.002,0.001,-0.001,,,
1575016272,0,-0.006,-0.015,0,0,0,0,0.001,0.001,195,219,188,171,1.95,2.19,1.88,1.71,-0.024,0.003,0,0.001,206,0.745,0.033,0.23,-10.045,0,0.001,-0.001,,,
1575016272,0.001,-0.006,-0.016,0,0,0,0,0.002,0.001,195,219,188,171,1.95,2.19,1.88,1.71,-0.023,0.004,0,0.001,206,0.745,0.027,0.223,-10.049,-0.004,0,-0.001,,,
1575016272,0.001,-0.005,-0.015,0,0,0,0,0,0.002,190,222,190,172,1.9,2.22,1.9,1.72,-0.024,0.003,0,0.001,206,0.751,0.022,0.23,-10.055,0,0.003,0.001,,,
1575016272,0.001,-0.003,-0.014,0,0,0,0,0,0.002,190,222,190,172,1.9,2.22,1.9,1.72,-0.024,0.003,0,0.001,206,0.751,0.026,0.239,-10.048,0.001,0.001,0.003,,,
1575016272,0.001,-0.002,-0.013,0,0,0,0,0,0.002,190,222,190,172,1.9,2.22,1.9,1.72,-0.024,0.003,0,0.001,206,0.749,0.032,0.234,-10.041,-0.001,0.002,0.001,,,
1575016272,0,-0.001,-0.013,0,0,0,0,0,0.002,190,222,190,172,1.9,2.22,1.9,1.72,-0.025,0.003,0,0.001,206,0.749,0.027,0.238,-10.062,0,-0.001,-0.002,,,
1575016272,0,0,-0.013,0,0,0,0,0,0.002,190,222,190,172,1.9,2.22,1.9,1.72,-0.025,0.003,0,0.001,206,0.749,0.022,0.241,-10.065,-0.001,0,0.003,,,
1575016272,0,0.001,-0.011,0,0,0,0,0,0.001,190,222,188,172,1.9,2.22,1.88,1.72,-0.025,0.003,0,0.001,206,0.755,0.02,0.228,-10.072,-0.001,-0.001,0,,,
1575016272,0.001,0.002,-0.01,0,0,0,0,0,0.001,190,222,188,172,1.9,2.22,1.88,1.72,-0.024,0.002,0,0.001,206,0.755,0.019,0.214,-10.065,-0.002,0,0,,,
1575016272,0.001,0.002,-0.009,0,0,0,0,0,0.001,190,222,188,172,1.9,2.22,1.88,1.72,-0.024,0.002,0,0.001,206,0.755,0.01,0.213,-10.055,-0.002,0,-0.001,,,
1575016272,0.001,0.003,-0.008,0,0,0,0,0,0.001,190,222,188,172,1.9,2.22,1.88,1.72,-0.023,0.002,0,0.001,206,0.755,0.011,0.21,-10.062,0.001,0.002,0,,,
1575016272,0.001,0.003,-0.007,0,0,0,0,0,0,193,219,191,168,1.93,2.19,1.91,1.68,-0.022,0.002,0,0.001,206,0.756,0.003,0.195,-10.059,0.003,0,0.002,,,
1575016272,0.001,0.003,-0.006,0,0,0,0,0,0,193,219,191,168,1.93,2.19,1.91,1.68,-0.022,0.001,0,0.001,206,0.756,0.006,0.2,-10.08,0.001,0.001,0,,,
1575016272,0.001,0.003,-0.005,0,0,0,0,-0.001,-0.001,190,224,188,169,1.9,2.24,1.88,1.69,-0.021,0.001,0,0.001,206,0.757,0.014,0.214,-10.054,0,-0.001,0.001,,,
1575016272,0,0.002,-0.004,0,0,0,0,-0.001,-0.001,190,224,188,169,1.9,2.24,1.88,1.69,-0.021,0.001,0,0.001,206,0.757,0.025,0.209,-10.046,-0.002,-0.001,0,,,
1575016272,-0.001,0.002,-0.004,0,0,0,0,-0.001,-0.001,190,224,188,169,1.9,2.24,1.88,1.69,-0.021,0.001,0,0.001,206,0.757,0.006,0.213,-10.038,0.003,-0.001,0.002,,,
1575016272,0,0.003,-0.01,0,0,0,0,0,0.001,188,220,188,171,1.88,2.2,1.88,1.71,-0.021,0.001,0,0.001,206,0.735,-0.001,0.22,-10.029,-0.001,-0.001,0.002,,,
1575016272,0,0.004,-0.015,0,0,0,0,0,0.002,188,220,188,171,1.88,2.2,1.88,1.71,-0.022,0,0,0.001,206,0.735,-0.006,0.219,-10.025,0.002,-0.002,0.001,,,
1575016272,0,0.005,-0.014,0,0,0,0,0,0.002,188,220,188,171,1.88,2.2,1.88,1.71,-0.022,0,0,0.001,206,0.757,-0.005,0.22,-10.032,0,0.001,0,,,
1575016272,0,0.006,-0.013,0,0,0,0,0,0.002,188,220,188,171,1.88,2.2,1.88,1.71,-0.023,0,0,0.001,206,0.757,0.007,0.237,-10.042,-0.001,0.002,0.001,,,
1575016272,0.001,0.007,-0.012,0,0,0,0,0,0.002,188,220,188,171,1.88,2.2,1.88,1.71,-0.023,0.001,0,0.001,206,0.757,0.004,0.236,-10.074,0.001,-0.001,0.002,,,
1575016272,0.001,0.008,-0.01,0,0,0,0,0,0.001,188,220,188,171,1.88,2.2,1.88,1.71,-0.024,0.001,0,0.001,206,0.757,0.014,0.23,-10.078,0.001,0,0.004,,,
1575016272,0.002,0.008,-0.01,0,0,0,0,0.001,0,190,222,185,172,1.9,2.22,1.85,1.72,-0.023,0.001,0,0.001,206,0.756,0.019,0.214,-10.052,-0.004,0,-0.001,,,
1575016272,0.003,0.007,-0.009,0,0,0,0,0.001,0,190,222,185,172,1.9,2.22,1.85,1.72,-0.023,0.002,0,0.001,206,0.756,0.02,0.221,-10.065,0.002,0.001,0,,,
1575016272,0.003,0.007,-0.008,0,0,0,0,0,0,190,224,188,172,1.9,2.24,1.88,1.72,-0.022,0.002,0,0.001,206,0.756,0.018,0.22,-10.063,0,0,-0.004,,,
1575016272,0.002,0.007,-0.012,0,0,0,0,0,0,190,221,190,169,1.9,2.21,1.9,1.69,-0.022,0.002,0,0.001,206,0.738,0.029,0.223,-10.081,0.002,0.001,0,,,
1575016272,0.002,0.007,-0.016,0,0,0,0,-0.001,0,190,221,190,169,1.9,2.21,1.9,1.69,-0.022,0.002,0,0.001,206,0.738,0.022,0.224,-10.091,-0.001,-0.002,0,,,
1575016272,0.001,0.008,-0.014,0,0,0,0,-0.001,0,190,221,190,169,1.9,2.21,1.9,1.69,-0.022,0.002,0,0.001,206,0.76,0.015,0.23,-10.103,0.002,0.002,0.004,,,
1575016272,0,0.008,-0.012,0,0,0,0,-0.001,0,190,221,190,169,1.9,2.21,1.9,1.69,-0.023,0.001,0,0.001,206,0.76,0.009,0.245,-10.101,0.002,0.004,-0.003,,,
1575016272,0.001,0.007,-0.011,0,0,0,0,0,-0.001,194,223,188,170,1.94,2.23,1.88,1.7,-0.023,0.001,0,0.001,206,0.755,0.001,0.245,-10.084,0.001,0.002,0.001,,,
1575016272,0.001,0.005,-0.01,0,0,0,0,0,-0.002,194,223,188,170,1.94,2.23,1.88,1.7,-0.023,0.001,0,0.001,206,0.755,-0.002,0.233,-10.086,0,0.001,0,,,
1575016272,0.001,0.004,-0.009,0,0,0,0,0,-0.002,194,223,188,170,1.94,2.23,1.88,1.7,-0.023,0.001,0,0.001,206,0.755,-0.003,0.237,-10.079,0.002,0,0.001,,,
1575016272,0,0.004,-0.01,0,0,0,0,-0.001,0,192,222,192,169,1.92,2.22,1.92,1.69,-0.022,0,0,0.001,206,0.748,-0.015,0.225,-10.049,0,0.001,0.001,,,
1575016272,0,0.004,-0.011,0,0,0,0,-0.001,0,192,222,192,169,1.92,2.22,1.92,1.69,-0.022,-0.001,0,0.001,206,0.748,-0.011,0.222,-10.046,0,0.001,0,,,
1575016273,-0.001,0.004,-0.012,0,0,0,0,-0.001,0,192,222,192,169,1.92,2.22,1.92,1.69,-0.022,-0.001,0,0.001,206,0.748,0,0.214,-10.054,0,0.002,0,,,
1575016273,-0.002,0.005,-0.013,0,0,0,0,-0.001,0,192,222,192,169,1.92,2.22,1.92,1.69,-0.022,0,0,0.001,206,0.748,0.017,0.217,-10.059,0.003,-0.003,-0.001,,,
1575016273,-0.003,0.005,-0.008,0,0,0,0,-0.001,0,192,222,192,169,1.92,2.22,1.92,1.69,-0.022,0,0,0.001,206,0.769,0.013,0.211,-10.046,0.001,-0.002,0,,,
1575016273,-0.004,0.005,-0.004,0,0,0,0,-0.001,0,192,222,192,169,1.92,2.22,1.92,1.69,-0.022,0,0,0.001,206,0.769,0.018,0.212,-10.025,0.003,0,0.001,,,
1575016273,-0.004,0.006,-0.004,0,0,0,0,0,0.001,190,219,191,170,1.9,2.19,1.91,1.7,-0.022,0,0,0.001,206,0.753,0.001,0.209,-10.036,0.002,0,0,,,
1575016273,-0.004,0.007,-0.005,0,0,0,0,0,0.001,190,219,191,170,1.9,2.19,1.91,1.7,-0.022,0,0,0.001,206,0.753,0.006,0.21,-10.036,-0.002,0,0.001,,,
1575016273,-0.004,0.008,-0.005,0,0,0,0,0,0.001,190,219,191,170,1.9,2.19,1.91,1.7,-0.022,0,0,0.001,206,0.753,0,0.211,-10.035,0,0.001,0,,,
1575016273,-0.004,0.009,-0.007,0,0,0,0,0,0.001,190,219,191,170,1.9,2.19,1.91,1.7,-0.022,0,0,0.001,206,0.748,-0.004,0.212,-10.011,0,0,0.002,,,
1575016273,-0.004,0.009,-0.009,0,0,0,0,0,0.001,190,219,191,170,1.9,2.19,1.91,1.7,-0.022,0,0,0.001,206,0.748,0.004,0.21,-10.016,-0.001,-0.001,0,,,
1575016273,-0.004,0.01,-0.011,0,0,0,0,0,0.001,190,219,191,170,1.9,2.19,1.91,1.7,-0.022,0,0,0.001,206,0.747,0.016,0.205,-10.028,-0.001,0.001,-0.002,,,
1575016273,-0.004,0.011,-0.013,0,0,0,0,0,0.001,190,219,191,170,1.9,2.19,1.91,1.7,-0.022,0.001,0,0.001,206,0.747,0.022,0.2,-10.029,0.003,-0.001,-0.001,,,
1575016273,-0.004,0.012,-0.014,0,0,0,0,0,0.001,190,219,191,170,1.9,2.19,1.91,1.7,-0.021,0.001,0,0.001,206,0.751,0.009,0.199,-10.051,0,-0.002,0,,,
1575016273,-0.004,0.012,-0.014,0,0,0,0,0,0.001,190,219,191,170,1.9,2.19,1.91,1.7,-0.022,0.001,0,0.001,206,0.751,0.017,0.214,-10.045,0,0.001,0.001,,,
1575016273,-0.004,0.013,-0.014,0,0,0,0,0,0.001,190,219,191,170,1.9,2.19,1.91,1.7,-0.022,0.001,0,0.001,206,0.751,0.021,0.229,-10.042,0.002,-0.002,0,,,
1575016273,-0.004,0.013,-0.015,0,0,0,0,0,0.001,190,219,191,170,1.9,2.19,1.91,1.7,-0.023,0.002,0,0.001,206,0.751,0.025,0.25,-10.045,0.001,-0.001,0.001,,,
1575016273,-0.004,0.014,-0.014,0,0,0,0,0,0.001,190,219,191,170,1.9,2.19,1.91,1.7,-0.024,0.002,0,0.001,206,0.754,0.015,0.25,-10.049,0,-0.002,-0.001,,,
1575016273,-0.004,0.014,-0.013,0,0,0,0,0,0.001,190,219,191,170,1.9,2.19,1.91,1.7,-0.024,0.002,0,0.001,206,0.754,0.022,0.249,-10.045,0,0,0.002,,,
1575016273,-0.004,0.015,-0.016,0,0,0,0,0,0.001,190,219,191,170,1.9,2.19,1.91,1.7,-0.024,0.002,0,0.001,206,0.742,0.017,0.249,-10.064,0,-0.003,0.002,,,
1575016273,-0.004,0.015,-0.017,0,0,0,0,0,0.001,190,219,191,170,1.9,2.19,1.91,1.7,-0.025,0.002,0,0.001,206,0.747,0.011,0.244,-10.067,0.004,0.005,0.001,,,
1575016273,-0.004,0.016,-0.017,0,0,0,0,0,0.001,190,219,191,170,1.9,2.19,1.91,1.7,-0.025,0.002,0,0.001,206,0.747,0.013,0.247,-10.064,-0.002,0.001,-0.001,,,
1575016273,-0.003,0.015,-0.012,0,0,0,0,0.001,-0.001,194,222,189,172,1.94,2.22,1.89,1.72,-0.024,0.002,0,0.001,206,0.766,0.021,0.239,-10.067,-0.002,-0.002,-0.002,,,
1575016273,-0.002,0.014,-0.008,0,0,0,0,0.001,-0.001,194,222,189,172,1.94,2.22,1.89,1.72,-0.024,0.002,0,0.001,206,0.766,0.024,0.239,-10.057,-0.001,-0.001,0,,,
1575016273,-0.001,0.013,-0.004,0,0,0,0,0.001,-0.001,194,222,189,172,1.94,2.22,1.89,1.72,-0.023,0.002,0,0.001,206,0.766,0.025,0.232,-10.056,-0.001,0.001,-0.003,,,
1575016273,-0.001,0.012,-0.004,0,0,0,0,0.001,-0.001,194,222,189,172,1.94,2.22,1.89,1.72,-0.023,0.003,0,0.001,206,0.751,0.026,0.215,-10.049,0.001,0.003,-0.001,,,
1575016273,0,0.011,-0.005,0,0,0,0,0.001,-0.001,194,222,189,172,1.94,2.22,1.89,1.72,-0.022,0.003,0,0.001,206,0.751,0.015,0.219,-10.056,0.001,0.002,0,,,
1575016273,0.001,0.011,-0.004,0,0,0,0,0.001,-0.001,196,221,190,172,1.96,2.21,1.9,1.72,-0.022,0.003,0,0.001,206,0.755,0.016,0.214,-10.05,0.001,0,0,,,
1575016273,0.002,0.01,-0.004,0,0,0,0,0.001,-0.001,196,221,190,172,1.96,2.21,1.9,1.72,-0.021,0.002,0,0.001,206,0.755,0.014,0.22,-10.05,-0.001,0.001,0.002,,,
1575016273,0.003,0.009,-0.003,0,0,0,0,0.001,-0.001,196,221,190,172,1.96,2.21,1.9,1.72,-0.021,0.002,0,0.001,206,0.755,0.004,0.211,-10.061,0.002,0.001,-0.001,,,
1575016273,0.003,0.009,-0.003,0,0,0,0,0.001,-0.001,190,223,191,171,1.96,2.21,1.9,1.72,-0.021,0.002,0,0.001,206,0.749,0.013,0.214,-10.056,0,-0.003,0.001,,,
1575016273,0.002,0.009,-0.005,0,0,0,0,-0.001,0,190,223,191,171,1.9,2.23,1.91,1.71,-0.021,0.002,0,0.001,206,0.749,0.012,0.216,-10.055,0.002,-0.001,-0.001,,,
1575016273,0.002,0.009,-0.007,0,0,0,0,-0.001,0,190,223,191,171,1.9,2.23,1.91,1.71,-0.022,0.001,0,0.001,206,0.749,0,0.23,-10.063,0,0,-0.002,,,
1575016273,0.001,0.009,-0.006,0,0,0,0,-0.001,0,190,223,191,171,1.9,2.23,1.91,1.71,-0.022,0.001,0,0.001,206,0.759,-0.001,0.225,-10.084,-0.001,-0.001,-0.001,,,
1575016273,0,0.01,-0.008,0,0,0,0,-0.001,0,189,223,189,172,1.89,2.23,1.89,1.72,-0.022,0,0,0.001,206,0.747,0.002,0.232,-10.069,0.002,0,0,,,
1575016273,0,0.01,-0.01,0,0,0,0,0,0,189,223,189,172,1.89,2.23,1.89,1.72,-0.023,0,0,0.001,206,0.747,0.008,0.242,-10.07,0.001,0.002,0,,,
1575016273,-0.001,0.01,-0.009,0,0,0,0,-0.001,0,189,221,191,168,1.89,2.21,1.91,1.68,-0.023,0,0,0.001,206,0.758,0,0.245,-10.076,-0.002,-0.001,0.002,,,
1575016273,-0.002,0.01,-0.009,0,0,0,0,-0.001,0,189,221,191,168,1.89,2.21,1.91,1.68,-0.023,0,0,0.001,206,0.758,0.002,0.223,-10.098,-0.004,0.001,0.001,,,
1575016273,-0.003,0.01,-0.008,0,0,0,0,-0.001,0,189,221,191,168,1.89,2.21,1.91,1.68,-0.022,0,0,0.001,206,0.758,0.003,0.205,-10.089,0.003,-0.001,-0.002,,,
1575016273,-0.004,0.01,-0.009,0,0,0,0,-0.001,0,193,223,192,171,1.93,2.23,1.92,1.71,-0.022,-0.001,0,0.001,206,0.749,-0.012,0.22,-10.084,0.002,-0.004,-0.003,,,
1575016273,-0.004,0.01,-0.01,0,0,0,0,-0.001,0,193,223,192,171,1.93,2.23,1.92,1.71,-0.022,-0.001,0,0.001,206,0.749,-0.019,0.233,-10.065,0.001,0.003,0.001,,,
1575016273,-0.005,0.01,-0.016,0,0,0,0,-0.001,0,193,223,192,171,1.93,2.23,1.92,1.71,-0.022,-0.001,0,0.001,206,0.732,-0.011,0.224,-10.061,0.002,0.001,-0.001,,,
1575016273,-0.005,0.009,-0.021,0,0,0,0,-0.001,0,193,223,192,171,1.93,2.23,1.92,1.71,-0.022,-0.001,0,0.001,206,0.732,0.003,0.227,-10.044,0.004,-0.002,-0.001,,,
1575016273,-0.005,0.009,-0.026,0,0,0,0,0,0,193,223,192,171,1.93,2.23,1.92,1.71,-0.022,-0.001,0,0.001,206,0.732,0.012,0.208,-10.05,0,0,0,,,
1575016273,-0.006,0.008,-0.026,0,0,0,0,0,-0.001,192,223,189,169,1.92,2.23,1.89,1.69,-0.021,0,0,0.001,206,0.749,0.005,0.205,-10.056,0,-0.001,0.001,,,
1575016273,-0.006,0.007,-0.025,0,0,0,0,0,-0.001,192,223,189,169,1.92,2.23,1.89,1.69,-0.021,-0.001,0,0.001,206,0.749,-0.008,0.209,-10.031,0.003,0.003,-0.001,,,
1575016273,-0.005,0.006,-0.025,0,0,0,0,0.001,-0.002,194,222,188,170,1.94,2.22,1.88,1.7,-0.02,0,0,0.001,206,0.747,0.001,0.201,-10.025,0.002,-0.003,0.004,,,
1575016273,-0.004,0.005,-0.024,0,0,0,0,0.001,-0.002,194,222,188,170,1.94,2.22,1.88,1.7,-0.02,0.001,0,0.001,206,0.747,0.023,0.212,-10.017,-0.001,0.001,0.001,,,
1575016273,-0.004,0.004,-0.024,0,0,0,0,0.001,-0.001,194,222,188,170,1.94,2.22,1.88,1.7,-0.02,0.001,0,0.001,206,0.746,0.025,0.221,-9.999,-0.002,0,0,,,
1575016273,-0.003,0.004,-0.023,0,0,0,0,0.001,-0.001,194,222,188,170,1.94,2.22,1.88,1.7,-0.021,0.002,0,0.001,206,0.746,0.023,0.235,-9.994,0.002,-0.001,0.002,,,
1575016273,-0.003,0.003,-0.023,0,0,0,0,0,-0.001,192,224,189,171,1.92,2.24,1.89,1.71,-0.021,0.002,0,0.001,206,0.745,0.03,0.236,-10.014,0.002,-0.001,0.001,,,
1575016273,-0.003,0.003,-0.023,0,0,0,0,0,0,192,224,189,171,1.92,2.24,1.89,1.71,-0.022,0.002,0,0.001,206,0.745,0.018,0.231,-10.04,-0.001,0,0,,,
1575016273,-0.003,0.003,-0.018,0,0,0,0,0,0,194,221,190,170,1.94,2.21,1.9,1.7,-0.022,0.002,0,0.001,206,0.76,0.022,0.234,-10.049,0,-0.002,0.001,,,
1575016273,-0.002,0.002,-0.014,0,0,0,0,0,0,194,221,190,170,1.94,2.21,1.9,1.7,-0.022,0.002,0,0.001,206,0.76,0.011,0.228,-10.033,0,-0.001,0.001,,,
1575016273,-0.002,0.002,-0.01,0,0,0,0,0,0,194,221,190,170,1.94,2.21,1.9,1.7,-0.022,0.002,0,0.001,206,0.76,0.013,0.236,-10.063,-0.001,-0.001,-0.002,,,
1575016273,-0.001,0.003,-0.008,0,0,0,0,0.001,0.001,193,224,189,177,1.93,2.24,1.89,1.77,-0.023,0.002,0,0.001,206,0.756,0.005,0.234,-10.07,0.001,0.004,-0.003,,,
1575016273,0,0.004,-0.005,0,0,0,0,0.001,0.001,193,224,189,177,1.93,2.24,1.89,1.77,-0.023,0.002,0,0.001,206,0.756,0.012,0.226,-10.066,0,0,-0.001,,,
1575016273,0.001,0.004,-0.003,0,0,0,0,0.001,0.001,193,224,189,177,1.93,2.24,1.89,1.77,-0.023,0.002,0,0.001,206,0.756,0.009,0.228,-10.075,0.002,0.003,0.002,,,
1575016273,0.002,0.005,-0.001,0,0,0,0,0.001,0.001,193,224,189,177,1.93,2.24,1.89,1.77,-0.023,0.002,0,0.001,206,0.756,0.021,0.23,-10.093,0,0.001,-0.002,,,
1575016274,0.003,0.006,-0.008,0,0,0,0,0.001,0.001,193,224,189,177,1.93,2.24,1.89,1.77,-0.023,0.002,0,0.001,206,0.726,0.021,0.218,-10.102,0.004,0,-0.002,,,
1575016274,0.004,0.006,-0.015,0,0,0,0,0.001,0.001,193,224,189,177,1.93,2.24,1.89,1.77,-0.023,0.003,0,0.001,206,0.726,0.029,0.228,-10.072,0.001,0,-0.002,,,
1575016274,0.004,0.007,-0.011,0,0,0,0,0.001,0.001,193,224,189,177,1.93,2.24,1.89,1.77,-0.023,0.003,0,0.001,206,0.765,0.026,0.24,-10.06,-0.004,-0.001,0.002,,,
1575016274,0.005,0.007,-0.007,0,0,0,0,0.001,0.001,193,224,189,177,1.93,2.24,1.89,1.77,-0.023,0.003,0,0.001,206,0.765,0.031,0.218,-10.066,0.007,0.003,-0.003,,,
1575016274,0.006,0.007,-0.003,0,0,0,0,0.001,0.001,193,224,189,177,1.93,2.24,1.89,1.77,-0.023,0.003,0,0.001,206,0.765,0.036,0.242,-10.047,-0.006,-0.002,0.002,,,
1575016274,0.007,0.008,-0.006,0,0,0,0,0.001,0.001,193,224,189,177,1.93,2.24,1.89,1.77,-0.024,0.003,0,0.001,206,0.741,0.015,0.232,-10.069,0.006,-0.003,0,,,
1575016274,0.007,0.008,-0.009,0,0,0,0,0.001,0.001,193,224,189,177,1.93,2.24,1.89,1.77,-0.024,0.003,0,0.001,206,0.741,0.029,0.257,-10.031,-0.006,0.002,-0.001,,,
1575016274,0.007,0.008,-0.013,0,0,0,0,0,-0.001,191,223,188,170,1.91,2.23,1.88,1.7,-0.024,0.003,0,0.001,206,0.738,0.025,0.256,-10.064,0.008,-0.001,0,,,
1575016274,0.007,0.007,-0.017,0,0,0,0,0,-0.001,191,223,188,170,1.91,2.23,1.88,1.7,-0.025,0.003,0,0.001,206,0.738,0.031,0.261,-10.034,-0.011,-0.003,0,,,
1575016274,0.008,0.008,-0.019,0,0,0,0,0.001,0.001,192,222,188,177,1.92,2.22,1.88,1.77,-0.025,0.003,0,0.001,206,0.745,0.015,0.253,-10.03,0.011,0.001,-0.001,,,
1575016274,0.009,0.009,-0.02,0,0,0,0,0.001,0.001,192,222,188,177,1.92,2.22,1.88,1.77,-0.025,0.003,0,0.001,206,0.745,0.029,0.249,-10.026,-0.014,0.005,0.004,,,
1575016274,0.01,0.009,-0.021,0,0,0,0,0.001,0.001,192,222,188,177,1.92,2.22,1.88,1.77,-0.025,0.003,0,0.001,206,0.745,0.006,0.223,-10.057,0.011,0,-0.002,,,
1575016274,0.011,0.01,-0.021,0,0,0,0,0.001,0.001,192,222,188,177,1.92,2.22,1.88,1.77,-0.024,0.003,0,0.001,206,0.745,0.042,0.225,-10.05,-0.007,0.016,0.009,,,
1575016274,0.012,0.011,-0.022,0,0,0,0,0.001,0.001,192,222,188,177,1.92,2.22,1.88,1.77,-0.025,0.004,0,0.001,206,0.759,0.026,0.248,-10.057,0.006,-0.022,-0.013,,,
1575016274,0.013,0.011,-0.018,0,0,0,0,0.001,0.001,192,222,188,177,1.92,2.22,1.88,1.77,-0.024,0.003,0,0.001,206,0.759,0.022,0.231,-10.062,-0.006,0.021,0.014,,,
1575016274,0.013,0.01,-0.017,0,0,0,0,0,-0.001,197,220,192,169,1.97,2.2,1.92,1.69,-0.024,0.003,0,0.001,206,0.753,0.031,0.254,-10.023,-0.001,-0.013,-0.013,,,
1575016274,0.013,0.01,-0.014,0,0,0,0,0,-0.001,194,220,190,170,1.94,2.2,1.9,1.7,-0.024,0.003,0,0.001,206,0.757,0.016,0.227,-10.058,0.009,0.006,0.008,,,
1575016274,0.013,0.009,-0.011,0,0,0,0,0,-0.001,194,220,190,170,1.94,2.2,1.9,1.7,-0.024,0.003,0,0.001,206,0.757,0.016,0.249,-10.04,-0.008,0.002,-0.003,,,
1575016274,0.013,0.009,-0.015,0,0,0,0,0,-0.001,194,220,190,170,1.94,2.2,1.9,1.7,-0.024,0.002,0,0.001,206,0.738,-0.001,0.249,-10.057,0.01,-0.005,0,,,
1575016274,0.013,0.008,-0.017,0,0,0,0,0,-0.001,194,220,190,170,1.94,2.2,1.9,1.7,-0.024,0.002,0,0.001,206,0.738,0.019,0.236,-10.065,-0.002,0.009,0.005,,,
1575016274,0.013,0.008,-0.02,0,0,0,0,0,-0.001,194,220,190,170,1.94,2.2,1.9,1.7,-0.024,0.002,0,0.001,206,0.738,0.017,0.245,-10.054,0.002,-0.007,-0.003,,,
1575016274,0.013,0.008,-0.019,0,0,0,0,0,-0.001,194,220,190,170,1.94,2.2,1.9,1.7,-0.024,0.002,0,0.001,206,0.753,0.024,0.24,-10.032,0,0.007,0.003,,,
1575016274,0.013,0.007,-0.017,0,0,0,0,0,-0.001,194,220,190,170,1.94,2.2,1.9,1.7,-0.024,0.003,0,0.001,206,0.753,0.042,0.241,-10.037,-0.009,-0.001,-0.001,,,
1575016274,0.013,0.007,-0.012,0,0,0,0,0,0,194,222,191,171,1.94,2.22,1.91,1.71,-0.023,0.003,0,0.001,206,0.766,0.037,0.223,-10.005,0.002,-0.001,-0.001,,,
1575016274,0.012,0.007,-0.007,0,0,0,0,0,0,194,222,191,171,1.94,2.22,1.91,1.71,-0.022,0.003,0,0.001,206,0.766,0.028,0.192,-10.017,-0.002,0.006,0.001,,,
1575016274,0.012,0.006,-0.002,0,0,0,0,0,-0.001,194,222,191,171,1.94,2.22,1.91,1.71,-0.022,0.003,0,0.001,206,0.766,0.024,0.205,-10.012,0.004,-0.001,0,,,
1575016274,0.011,0.006,0.002,0,0,0,0,0,-0.001,194,222,191,171,1.94,2.22,1.91,1.71,-0.021,0.002,0,0.001,206,0.766,0.028,0.202,-10.032,-0.004,0.001,0.001,,,
1575016274,0.011,0.006,0.001,0,0,0,0,0,0,194,222,191,171,1.94,2.22,1.91,1.71,-0.021,0.002,0,0.001,206,0.75,0.02,0.221,-10.014,0.002,-0.001,-0.001,,,
1575016274,0.01,0.006,0,0,0,0,0,0,0,194,222,191,171,1.94,2.22,1.91,1.71,-0.021,0.002,0,0.001,206,0.75,0.02,0.214,-10.045,-0.002,-0.001,0.002,,,
1575016274,0.01,0.004,-0.004,0,0,0,0,-0.001,-0.002,194,225,188,170,1.94,2.25,1.88,1.7,-0.021,0.002,0,0.001,206,0.742,0.026,0.21,-10.065,-0.001,-0.004,0,,,
1575016274,0.01,0.002,-0.004,0,0,0,0,0,-0.002,196,224,189,169,1.96,2.24,1.89,1.69,-0.02,0.002,0,0.001,206,0.755,0.021,0.211,-10.076,0.003,-0.003,0.004,,,
1575016274,0.009,0.001,-0.004,0,0,0,0,0,-0.002,196,224,189,169,1.96,2.24,1.89,1.69,-0.02,0.002,0,0.001,206,0.755,0.02,0.224,-10.08,-0.005,0.002,0,,,
1575016274,0.009,0.001,-0.003,0,0,0,0,0,-0.001,191,223,188,170,1.91,2.23,1.88,1.7,-0.021,0.001,0,0.001,206,0.76,-0.004,0.237,-10.082,0,0,-0.001,,,
1575016274,0.008,0,-0.002,0,0,0,0,-0.001,0,191,223,188,170,1.91,2.23,1.88,1.7,-0.021,0.001,0,0.001,206,0.76,0,0.223,-10.08,0,0.005,0.002,,,
1575016274,0.008,0,-0.001,0,0,0,0,0,0,191,223,188,170,1.91,2.23,1.88,1.7,-0.022,0,0,0.001,206,0.739,-0.012,0.245,-10.062,0,-0.002,-0.001,,,
1575016274,0.008,0,-0.006,0,0,0,0,0,0,191,223,188,170,1.91,2.23,1.88,1.7,-0.022,0,0,0.001,206,0.739,-0.013,0.238,-10.058,0.001,0.005,0.002,,,
1575016274,0.007,0,-0.011,0,0,0,0,0,0,191,223,188,170,1.91,2.23,1.88,1.7,-0.023,0,0,0.001,206,0.739,0.002,0.257,-10.053,-0.001,-0.001,0.001,,,
1575016274,0.007,0,-0.01,0,0,0,0,-0.001,0,190,222,188,168,1.9,2.22,1.88,1.68,-0.024,0,0,0.001,206,0.759,0.003,0.256,-10.06,0.003,0.003,0.004,,,
1575016274,0.006,0,-0.009,0,0,0,0,-0.001,0,190,222,188,168,1.9,2.22,1.88,1.68,-0.024,0,0,0.001,206,0.759,0.024,0.243,-10.056,0,-0.002,-0.002,,,
1575016274,0.005,0,-0.008,0,0,0,0,-0.001,0,190,222,188,168,1.9,2.22,1.88,1.68,-0.024,0.001,0,0.001,206,0.759,0.021,0.252,-10.068,0,0.001,0.001,,,
1575016274,0.005,0,-0.007,0,0,0,0,-0.001,0,190,222,188,168,1.9,2.22,1.88,1.68,-0.024,0.001,0,0.001,206,0.759,0.035,0.253,-10.073,0.002,-0.004,-0.002,,,
1575016274,0.004,-0.002,-0.012,0,0,0,0,-0.001,-0.002,194,226,189,168,1.94,2.26,1.89,1.68,-0.024,0.001,0,0.001,206,0.739,0.029,0.255,-10.066,-0.004,-0.002,0.002,,,
1575016274,0.003,-0.003,-0.016,0,0,0,0,-0.001,-0.002,194,226,189,168,1.94,2.26,1.89,1.68,-0.024,0.002,0,0.001,206,0.739,0.031,0.248,-10.07,-0.002,0.002,-0.004,,,
1575016274,0.002,-0.005,-0.018,0,0,0,0,-0.001,-0.002,194,226,189,168,1.94,2.26,1.89,1.68,-0.024,0.002,0,0.001,206,0.744,0.024,0.243,-10.06,0,-0.004,-0.003,,,
1575016274,0.001,-0.005,-0.016,0,0,0,0,-0.001,-0.001,192,225,190,170,1.92,2.25,1.9,1.7,-0.024,0.001,0,0.001,206,0.758,0.018,0.252,-10.049,-0.001,0.004,0.001,,,
1575016274,0,-0.005,-0.014,0,0,0,0,-0.001,0,192,225,190,170,1.92,2.25,1.9,1.7,-0.024,0.001,0,0.001,206,0.758,0.006,0.254,-10.046,0.001,-0.001,-0.002,,,
1575016274,0,-0.005,-0.017,0,0,0,0,0,0,193,221,190,169,1.93,2.21,1.9,1.69,-0.024,0.001,0,0.001,206,0.739,0.007,0.243,-10.057,0,0.004,0.002,,,
1575016274,0,-0.004,-0.02,0,0,0,0,0,0,193,221,190,169,1.93,2.21,1.9,1.69,-0.024,0.001,0,0.001,206,0.739,0.01,0.232,-10.071,0,0,-0.001,,,
1575016274,0,-0.004,-0.02,0,0,0,0,0,0,193,221,190,169,1.93,2.21,1.9,1.69,-0.024,0.001,0,0.001,206,0.749,0.009,0.227,-10.052,0,-0.003,-0.001,,,
1575016274,0,-0.004,-0.02,0,0,0,0,0,0,193,221,190,169,1.93,2.21,1.9,1.69,-0.023,0.001,0,0.001,206,0.749,0.012,0.21,-10.071,0,-0.001,0.002,,,
1575016274,0,-0.004,-0.019,0,0,0,0,0,0,193,221,190,169,1.93,2.21,1.9,1.69,-0.023,0.001,0,0.001,206,0.749,0.011,0.216,-10.059,0,-0.004,0.002,,,
1575016274,0,-0.003,-0.019,0,0,0,0,0,0,191,223,188,170,1.91,2.23,1.88,1.7,-0.023,0.001,0,0.001,206,0.748,0.012,0.22,-10.072,0,-0.001,0.001,,,
1575016274,0,-0.003,-0.019,0,0,0,0,0,0,191,223,188,170,1.91,2.23,1.88,1.7,-0.023,0.001,0,0.001,206,0.748,0.013,0.231,-10.096,-0.002,-0.001,-0.001,,,
1575016274,0,-0.003,-0.019,0,0,0,0,0,0,191,223,188,170,1.91,2.23,1.88,1.7,-0.022,0.001,0,0.001,206,0.748,0.019,0.217,-10.072,-0.004,0.001,-0.001,,,
1575016274,0,-0.003,-0.019,0,0,0,0,0,0,191,223,188,170,1.91,2.23,1.88,1.7,-0.022,0.002,0,0.001,206,0.748,0.025,0.216,-10.082,-0.004,-0.001,-0.002,,,
1575016274,0,-0.003,-0.018,0,0,0,0,0,0,191,223,188,170,1.91,2.23,1.88,1.7,-0.023,0.001,0,0.001,206,0.748,0.013,0.239,-10.068,0.007,-0.001,-0.006,,,
1575016274,0,-0.003,-0.018,0,0,0,0,0,0,191,223,188,170,1.91,2.23,1.88,1.7,-0.023,0.001,0,0.001,206,0.748,0.008,0.225,-10.056,-0.004,0.004,0.004,,,
1575016275,0,-0.003,-0.019,0,0,0,0,0,0,191,223,188,170,1.91,2.23,1.88,1.7,-0.023,0.001,0,0.001,206,0.745,0.007,0.244,-10.052,-0.002,-0.007,-0.007,,,
1575016275,-0.001,-0.003,-0.019,0,0,0,0,0,0,191,223,188,170,1.91,2.23,1.88,1.7,-0.023,0.001,0,0.001,206,0.745,-0.003,0.221,-10.073,0.003,0.006,0.009,,,
1575016275,-0.001,-0.003,-0.02,0,0,0,0,0,0,191,223,188,170,1.91,2.23,1.88,1.7,-0.023,0.001,0,0.001,206,0.745,0.001,0.229,-10.052,-0.005,-0.002,-0.006,,,
1575016275,-0.001,-0.003,-0.019,0,0,0,0,0,0,191,223,188,170,1.91,2.23,1.88,1.7,-0.023,0.001,0,0.001,206,0.749,0.009,0.219,-10.067,0.005,0,0.006,,,
1575016275,-0.001,-0.003,-0.018,0,0,0,0,0,0,191,223,188,170,1.91,2.23,1.88,1.7,-0.022,0.001,0,0.001,206,0.749,0.006,0.221,-10.072,-0.006,0.006,0.002,,,
1575016275,0,-0.001,-0.015,0,0,0,0,0.001,0.002,189,219,188,171,1.89,2.19,1.88,1.71,-0.023,0.001,0,0.001,206,0.759,-0.003,0.231,-10.052,0.004,-0.005,-0.004,,,
1575016275,0.001,0,-0.012,0,0,0,0,0.001,0.002,189,219,188,171,1.89,2.19,1.88,1.71,-0.023,0.001,0,0.001,206,0.759,0.004,0.225,-10.037,-0.002,0.004,0.004,,,
1575016275,0.001,0.001,-0.012,0,0,0,0,0.001,0.002,189,219,188,171,1.89,2.19,1.88,1.71,-0.024,0.001,0,0.001,206,0.749,0.012,0.238,-10.036,-0.007,-0.003,-0.003,,,
1575016275,0.002,0.003,-0.012,0,0,0,0,0.001,0.002,189,219,188,171,1.89,2.19,1.88,1.71,-0.024,0.001,0,0.001,206,0.749,0,0.241,-10.061,0.004,0.003,0.004,,,
1575016275,0.002,0.004,-0.013,0,0,0,0,0.001,0.002,189,219,188,171,1.89,2.19,1.88,1.71,-0.025,0.001,0,0.001,206,0.749,0.013,0.258,-10.043,-0.005,0,-0.002,,,
1575016275,0.003,0.005,-0.013,0,0,0,0,0.001,0.002,189,219,188,171,1.89,2.19,1.88,1.71,-0.025,0.001,0,0.001,206,0.749,0.011,0.251,-10.066,0.004,0.003,0.003,,,
1575016275,0.003,0.006,-0.013,0,0,0,0,0.001,0.002,189,219,188,171,1.89,2.19,1.88,1.71,-0.025,0.002,0,0.001,206,0.749,0.016,0.236,-10.08,-0.004,-0.001,-0.001,,,
1575016275,0.004,0.005,-0.013,0,0,0,0,0.001,0,193,221,188,171,1.93,2.21,1.88,1.71,-0.025,0.001,0,0.001,206,0.752,0.004,0.235,-10.081,0.003,0.002,0.002,,,
1575016275,0.005,0.005,-0.01,0,0,0,0,0.001,0,193,221,188,171,1.93,2.21,1.88,1.71,-0.024,0.001,0,0.001,206,0.76,0.006,0.24,-10.08,0.001,0.003,0,,,
1575016275,0.005,0.005,-0.007,0,0,0,0,0.001,0,193,221,188,171,1.93,2.21,1.88,1.71,-0.024,0.001,0,0.001,206,0.762,0.008,0.235,-10.074,-0.001,-0.001,0.001,,,
1575016275,0.006,0.005,-0.004,0,0,0,0,0.001,0,193,221,188,171,1.93,2.21,1.88,1.71,-0.023,0.001,0,0.001,206,0.762,0.012,0.222,-10.098,0.001,0.002,-0.001,,,
1575016275,0.007,0.004,-0.002,0,0,0,0,0.001,0,193,221,188,171,1.93,2.21,1.88,1.71,-0.023,0.002,0,0.001,206,0.762,0.014,0.213,-10.089,-0.001,-0.001,0,,,
1575016275,0.007,0.004,-0.001,0,0,0,0,0.001,0,193,221,188,171,1.93,2.21,1.88,1.71,-0.023,0.002,0,0.001,206,0.758,0.009,0.24,-10.082,0.001,0.001,0.001,,,
1575016275,0.008,0.004,0,0,0,0,0,0.001,0,193,221,188,171,1.93,2.21,1.88,1.71,-0.023,0.001,0,0.001,206,0.758,-0.002,0.236,-10.084,-0.001,0.001,0.002,,,
1575016275,0.008,0.004,0,0,0,0,0,0.001,0,193,221,188,171,1.93,2.21,1.88,1.71,-0.023,0.001,0,0.001,206,0.755,-0.003,0.245,-10.075,-0.001,-0.004,-0.001,,,
1575016275,0.009,0.003,-0.001,0,0,0,0,0,0,193,221,188,171,1.93,2.21,1.88,1.71,-0.024,0.001,0,0.001,206,0.755,-0.002,0.251,-10.095,0.002,0.002,0.001,,,
1575016275,0.009,0.003,-0.003,0,0,0,0,0,-0.001,194,222,189,171,1.94,2.22,1.89,1.71,-0.024,0.001,0,0.001,206,0.747,0.003,0.245,-10.072,-0.001,0.001,-0.003,,,
1575016275,0.009,0.003,-0.006,0,0,0,0,0,-0.001,194,222,189,171,1.94,2.22,1.89,1.71,-0.024,0.001,0,0.001,206,0.747,0.005,0.242,-10.08,0.001,0.001,0.003,,,
1575016275,0.009,0.002,-0.008,0,0,0,0,0,-0.001,194,222,189,171,1.94,2.22,1.89,1.71,-0.024,0.001,0,0.001,206,0.747,0.009,0.242,-10.088,0,0,-0.001,,,
1575016275,0.009,0.002,-0.011,0,0,0,0,0,-0.001,194,222,189,171,1.94,2.22,1.89,1.71,-0.024,0.001,0,0.001,206,0.747,0.012,0.243,-10.076,0.002,0.001,0.002,,,
1575016275,0.009,0.002,-0.014,0,0,0,0,0,-0.001,194,222,189,171,1.94,2.22,1.89,1.71,-0.024,0.001,0,0.001,206,0.742,0.018,0.244,-10.083,-0.001,-0.002,-0.003,,,
1575016275,0.01,0.001,-0.017,0,0,0,0,0,0,194,222,189,171,1.94,2.22,1.89,1.71,-0.024,0.001,0,0.001,206,0.742,0.006,0.248,-10.084,0,0.004,0,,,
1575016275,0.01,0.001,-0.019,0,0,0,0,0,0,194,222,189,171,1.94,2.22,1.89,1.71,-0.024,0.001,0,0.001,206,0.744,0.006,0.238,-10.045,-0.001,0.001,0.002,,,
1575016275,0.009,0,-0.016,0,0,0,0,0,-0.001,193,225,188,170,1.93,2.25,1.88,1.7,-0.024,0.001,0,0.001,206,0.761,0.019,0.248,-10.07,-0.001,-0.004,0.002,,,
1575016275,0.009,-0.001,-0.013,0,0,0,0,-0.001,-0.001,193,225,188,170,1.93,2.25,1.88,1.7,-0.024,0.001,0,0.001,206,0.761,0.016,0.25,-10.072,-0.002,0.001,0.001,,,
1575016275,0.008,-0.002,-0.009,0,0,0,0,-0.001,-0.001,193,225,188,170,1.93,2.25,1.88,1.7,-0.024,0.001,0,0.001,206,0.765,0.022,0.261,-10.083,-0.001,-0.002,-0.002,,,
1575016275,0.008,-0.003,-0.006,0,0,0,0,-0.001,-0.001,193,225,188,170,1.93,2.25,1.88,1.7,-0.024,0.002,0,0.001,206,0.765,0.031,0.261,-10.085,0.001,0.002,0,,,
1575016275,0.007,-0.003,-0.002,0,0,0,0,0,-0.001,193,225,188,170,1.93,2.25,1.88,1.7,-0.024,0.002,0,0.001,206,0.765,0.023,0.244,-10.09,-0.002,-0.002,0,,,
1575016275,0.007,-0.004,-0.003,0,0,0,0,0,-0.001,193,225,188,170,1.93,2.25,1.88,1.7,-0.024,0.002,0,0.001,206,0.752,0.021,0.244,-10.093,0,0.001,-0.002,,,
1575016275,0.006,-0.005,-0.004,0,0,0,0,0,-0.001,193,225,188,170,1.93,2.25,1.88,1.7,-0.024,0.002,0,0.001,206,0.752,0.024,0.244,-10.071,0.001,-0.001,0.001,,,
1575016275,0.006,-0.005,-0.004,0,0,0,0,0,-0.001,193,225,188,170,1.93,2.25,1.88,1.7,-0.023,0.002,0,0.001,206,0.753,0.023,0.236,-10.056,-0.001,-0.002,-0.001,,,
1575016275,0.005,-0.006,-0.005,0,0,0,0,0,-0.001,193,225,188,170,1.93,2.25,1.88,1.7,-0.023,0.001,0,0.001,206,0.753,-0.001,0.226,-10.048,-0.005,0.001,0,,,
1575016275,0.005,-0.007,-0.005,0,0,0,0,0,-0.001,193,225,188,170,1.93,2.25,1.88,1.7,-0.023,0.001,0,0.001,206,0.753,0.004,0.235,-10.053,-0.001,0,0.003,,,
1575016275,0.005,-0.007,-0.007,0,0,0,0,0,-0.001,193,225,188,170,1.93,2.25,1.88,1.7,-0.023,0.001,0,0.001,206,0.75,0.009,0.229,-10.04,0.002,-0.002,0,,,
1575016275,0.004,-0.008,-0.008,0,0,0,0,0,-0.001,193,225,188,170,1.93,2.25,1.88,1.7,-0.022,0,0,0.001,206,0.75,-0.007,0.204,-10.045,-0.001,0.001,0.001,,,
1575016275,0.004,-0.008,-0.009,0,0,0,0,0,-0.001,193,225,188,170,1.93,2.25,1.88,1.7,-0.021,0,0,0.001,206,0.75,-0.005,0.208,-10.028,0.002,0.001,-0.001,,,
1575016275,0.003,-0.006,-0.012,0,0,0,0,-0.001,0.002,190,223,192,172,1.9,2.23,1.92,1.72,-0.021,0,0,0.001,206,0.743,-0.002,0.199,-10.026,0.001,-0.002,-0.001,,,
1575016275,0.002,-0.005,-0.015,0,0,0,0,-0.001,0.002,190,223,192,172,1.9,2.23,1.92,1.72,-0.021,-0.001,0,0.001,206,0.743,-0.006,0.179,-10.05,-0.002,0.001,0,,,
1575016275,0.001,-0.003,-0.017,0,0,0,0,-0.001,0.002,190,223,192,172,1.9,2.23,1.92,1.72,-0.021,-0.001,0,0.001,206,0.743,-0.01,0.204,-10.041,0.002,-0.003,-0.003,,,
1575016275,0.001,-0.004,-0.015,0,0,0,0,0,0,191,225,185,171,1.91,2.25,1.85,1.71,-0.021,-0.001,0,0.001,206,0.761,0,0.189,-10.06,0.008,0.007,0.004,,,
1575016275,0.002,-0.004,-0.012,0,0,0,0,0,-0.001,191,225,185,171,1.91,2.25,1.85,1.71,-0.02,0,0,0.001,206,0.761,0.013,0.209,-10.063,-0.005,-0.007,-0.006,,,
1575016275,0.002,-0.005,-0.01,0,0,0,0,0,-0.001,191,225,185,171,1.91,2.25,1.85,1.71,-0.02,0,0,0.001,206,0.759,0.009,0.191,-10.055,0.011,0.004,0.003,,,
1575016275,0.002,-0.005,-0.008,0,0,0,0,0,-0.001,191,225,185,171,1.91,2.25,1.85,1.71,-0.02,0.001,0,0.001,206,0.759,0.032,0.195,-10.048,-0.013,0.008,0.004,,,
1575016275,0.003,-0.006,-0.006,0,0,0,0,0,-0.001,193,226,190,171,1.91,2.25,1.85,1.71,-0.02,0.001,0,0.001,206,0.756,0.019,0.204,-10.034,0.009,-0.014,-0.008,,,
1575016275,0.002,-0.006,-0.005,0,0,0,0,-0.001,0,193,226,190,171,1.93,2.26,1.9,1.71,-0.019,0.002,0,0.001,206,0.756,0.026,0.192,-10.061,-0.005,0.015,0.011,,,
1575016275,0.001,-0.006,-0.004,0,0,0,0,-0.001,0,193,226,190,171,1.93,2.26,1.9,1.71,-0.02,0.002,0,0.001,206,0.756,0.018,0.208,-10.051,0.005,-0.013,-0.01,,,
1575016275,0,-0.006,-0.004,0,0,0,0,-0.001,0,193,226,190,171,1.93,2.26,1.9,1.71,-0.02,0.002,0,0.001,206,0.756,0.029,0.2,-10.076,-0.001,0.011,0.006,,,
1575016275,0,-0.006,-0.003,0,0,0,0,-0.001,0,193,226,190,171,1.93,2.26,1.9,1.71,-0.02,0.002,0,0.001,206,0.756,0.044,0.222,-10.054,-0.005,-0.004,-0.004,,,
1575016275,0,-0.007,-0.007,0,0,0,0,0,0,195,222,190,169,1.95,2.22,1.9,1.69,-0.02,0.002,0,0.001,206,0.74,0.026,0.216,-10.055,0.006,-0.002,0,,,
1575016275,0,-0.007,-0.006,0,0,0,0,0,0,195,222,190,169,1.95,2.22,1.9,1.69,-0.02,0.002,0,0.001,206,0.758,0.025,0.21,-10.052,-0.005,0.002,0.001,,,
1575016275,-0.001,-0.007,-0.01,0,0,0,0,0,0,192,226,189,171,1.92,2.26,1.89,1.71,-0.021,0.002,0,0.001,206,0.741,0.014,0.237,-10.03,0.006,-0.002,-0.002,,,
1575016275,-0.001,-0.007,-0.013,0,0,0,0,-0.001,0,192,226,189,171,1.92,2.26,1.89,1.71,-0.021,0.002,0,0.001,206,0.741,0.024,0.222,-10.037,0.004,0,0,,,
1575016276,-0.002,-0.007,-0.016,0,0,0,0,-0.001,0,192,226,189,171,1.92,2.26,1.89,1.71,-0.022,0.002,0,0.001,206,0.741,0.017,0.229,-10.018,0,0,-0.001,,,
1575016276,0,-0.006,-0.017,0,0,0,0,0.001,0.001,196,224,188,178,1.96,2.24,1.88,1.78,-0.022,0.002,0,0.001,206,0.749,0.031,0.212,-10.021,0.004,0.001,0.003,,,
1575016276,0.002,-0.006,-0.017,0,0,0,0,0.002,0.001,196,224,188,178,1.96,2.24,1.88,1.78,-0.022,0.003,0,0.001,206,0.749,0.032,0.217,-10.034,-0.006,0,-0.001,,,
1575016276,0.003,-0.005,-0.019,0,0,0,0,0.002,0.001,196,224,188,178,1.96,2.24,1.88,1.78,-0.022,0.004,0,0.001,206,0.739,0.038,0.231,-10.032,0.001,-0.004,0.002,,,
1575016276,0.005,-0.005,-0.022,0,0,0,0,0.002,0.001,196,224,188,178,1.96,2.24,1.88,1.78,-0.022,0.004,0,0.001,206,0.739,0.037,0.212,-10.048,0.002,0.001,-0.002,,,
1575016276,0.007,-0.004,-0.018,0,0,0,0,0.002,0.001,196,224,188,178,1.96,2.24,1.88,1.78,-0.023,0.004,0,0.001,206,0.76,0.031,0.232,-10.027,0,-0.001,0.002,,,
