timestamp,x,y,z,deltaX,deltaY,deltaX_sum,deltaY_sum,v_x,v_y,DD[0],DD[1],DD[2],DD[3],DD_old[0],DD_old[1],DD_old[2],DD_old[3],dd1,dd2,dd3,dd4,DD_abs[0],DD_abs[1],DD_abs[2],DD_abs[3],Pitch,Roll,Yaw,Yaw_pix,heading_pix,Height
1574412538.749,0.005,-0.002,-0.007,-0.000,0.000,0.000,0.000,0.000,0.001,188.000,219.000,196.000,163.000,187.000,217.000,192.000,164.000,1.880,2.190,1.960,1.630,1.000,2.000,4.000,1.000,-0.000,0.014,-0.001,0.000,317.000,0.762
1574412538.775,0.005,-0.002,-0.005,-0.000,0.000,0.000,0.000,-0.000,0.001,188.000,219.000,196.000,163.000,188.000,219.000,196.000,163.000,1.880,2.190,1.960,1.630,0.000,0.000,0.000,0.000,-0.000,0.014,-0.001,0.000,317.000,0.762
1574412538.793,0.004,-0.001,-0.002,-0.000,0.000,0.000,0.000,-0.000,0.001,188.000,219.000,196.000,163.000,188.000,219.000,196.000,163.000,1.880,2.190,1.960,1.630,0.000,0.000,0.000,0.000,-0.000,0.014,-0.001,0.000,317.000,0.762
1574412538.811,0.004,-0.000,0.000,-0.000,0.000,0.000,0.000,-0.000,0.001,188.000,219.000,196.000,163.000,188.000,219.000,196.000,163.000,1.880,2.190,1.960,1.630,0.000,0.000,0.000,0.000,-0.001,0.014,-0.001,0.000,317.000,0.762
1574412538.825,0.004,0.001,-0.004,-0.000,0.000,0.000,0.000,-0.000,0.002,184.000,218.000,195.000,164.000,188.000,219.000,196.000,163.000,1.840,2.180,1.950,1.640,4.000,1.000,1.000,1.000,-0.001,0.013,-0.001,0.000,317.000,0.743
1574412538.841,0.004,0.003,-0.006,-0.000,0.000,0.000,0.000,-0.000,0.002,184.000,218.000,195.000,164.000,184.000,218.000,195.000,164.000,1.840,2.180,1.950,1.640,0.000,0.000,0.000,0.000,-0.002,0.013,-0.001,0.000,317.000,0.747
1574412538.858,0.004,0.004,-0.011,-0.000,0.000,0.000,0.000,-0.000,0.002,184.000,218.000,195.000,164.000,184.000,218.000,195.000,164.000,1.840,2.180,1.950,1.640,0.000,0.000,0.000,0.000,-0.002,0.014,-0.001,0.000,317.000,0.738
1574412538.875,0.003,0.006,-0.015,-0.000,0.000,0.000,0.000,-0.000,0.002,184.000,218.000,195.000,164.000,184.000,218.000,195.000,164.000,1.840,2.180,1.950,1.640,0.000,0.000,0.000,0.000,-0.002,0.014,-0.001,0.000,317.000,0.738
1574412538.893,0.003,0.006,-0.013,-0.000,0.000,0.000,0.000,-0.000,0.001,185.000,217.000,195.000,162.000,184.000,218.000,195.000,164.000,1.850,2.170,1.950,1.620,1.000,1.000,0.000,2.000,-0.002,0.015,-0.001,0.000,317.000,0.757
1574412538.910,0.003,0.007,-0.012,-0.000,0.000,0.000,0.000,-0.000,0.001,185.000,217.000,195.000,162.000,185.000,217.000,195.000,162.000,1.850,2.170,1.950,1.620,0.000,0.000,0.000,0.000,-0.002,0.015,-0.001,0.000,317.000,0.757
1574412538.928,0.003,0.008,-0.010,-0.000,0.000,0.000,0.000,-0.000,0.001,185.000,217.000,195.000,162.000,185.000,217.000,195.000,162.000,1.850,2.170,1.950,1.620,0.000,0.000,0.000,0.000,-0.002,0.015,-0.001,0.000,317.000,0.757
1574412538.944,0.003,0.008,-0.014,-0.000,0.000,0.000,0.000,-0.000,0.001,186.000,219.000,196.000,162.000,185.000,217.000,195.000,162.000,1.860,2.190,1.960,1.620,1.000,2.000,1.000,0.000,-0.002,0.015,-0.001,0.000,317.000,0.738
1574412538.961,0.002,0.008,-0.017,-0.000,0.000,0.000,0.000,-0.001,0.000,186.000,219.000,196.000,162.000,186.000,219.000,196.000,162.000,1.860,2.190,1.960,1.620,0.000,0.000,0.000,0.000,-0.002,0.015,-0.001,0.000,317.000,0.738
1574412538.978,0.001,0.009,-0.016,-0.000,0.000,0.000,0.000,-0.001,0.000,186.000,219.000,196.000,162.000,186.000,219.000,196.000,162.000,1.860,2.190,1.960,1.620,0.000,0.000,0.000,0.000,-0.002,0.015,-0.001,0.000,317.000,0.753
1574412538.996,0.001,0.009,-0.015,-0.000,0.000,0.000,0.000,-0.001,0.000,186.000,219.000,196.000,162.000,186.000,219.000,196.000,162.000,1.860,2.190,1.960,1.620,0.000,0.000,0.000,0.000,-0.002,0.014,-0.001,0.000,317.000,0.753
1574412539.017,0.000,0.009,-0.014,-0.000,0.000,0.000,0.000,-0.001,0.000,186.000,219.000,196.000,162.000,186.000,219.000,196.000,162.000,1.860,2.190,1.960,1.620,0.000,0.000,0.000,0.000,-0.001,0.014,-0.001,0.000,317.000,0.753
1574412539.034,-0.000,0.009,-0.013,-0.000,0.000,0.000,0.000,-0.001,0.000,186.000,219.000,196.000,162.000,186.000,219.000,196.000,162.000,1.860,2.190,1.960,1.620,0.000,0.000,0.000,0.000,-0.001,0.014,-0.001,0.000,317.000,0.753
1574412539.055,-0.001,0.009,-0.015,-0.000,0.000,0.000,0.000,-0.001,-0.000,184.000,217.000,194.000,158.000,186.000,219.000,196.000,162.000,1.840,2.170,1.940,1.580,2.000,2.000,2.000,4.000,-0.001,0.014,-0.001,0.001,317.000,0.743
1574412539.072,-0.001,0.009,-0.016,-0.000,0.000,0.000,0.000,-0.000,-0.000,184.000,217.000,194.000,158.000,184.000,217.000,194.000,158.000,1.840,2.170,1.940,1.580,0.000,0.000,0.000,0.000,-0.001,0.015,-0.001,0.001,317.000,0.743
1574412539.086,-0.002,0.009,-0.014,-0.000,0.000,0.000,0.000,-0.000,-0.000,184.000,217.000,194.000,158.000,184.000,217.000,194.000,158.000,1.840,2.170,1.940,1.580,0.000,0.000,0.000,0.000,-0.001,0.014,-0.001,0.001,317.000,0.758
1574412539.103,-0.002,0.008,-0.009,-0.000,0.000,0.000,0.000,-0.000,-0.000,184.000,217.000,194.000,158.000,184.000,217.000,194.000,158.000,1.840,2.170,1.940,1.580,0.000,0.000,0.000,0.000,-0.001,0.014,-0.001,0.001,317.000,0.768
1574412539.120,-0.002,0.008,-0.004,-0.000,0.000,0.000,0.000,-0.000,-0.000,184.000,217.000,194.000,158.000,184.000,217.000,194.000,158.000,1.840,2.170,1.940,1.580,0.000,0.000,0.000,0.000,-0.001,0.014,-0.001,0.001,317.000,0.768
1574412539.137,-0.003,0.008,-0.003,-0.000,0.000,0.000,0.000,-0.000,-0.000,184.000,217.000,194.000,158.000,184.000,217.000,194.000,158.000,1.840,2.170,1.940,1.580,0.000,0.000,0.000,0.000,-0.001,0.014,-0.001,0.001,317.000,0.757
1574412539.154,-0.003,0.008,-0.003,-0.000,0.000,0.000,0.000,-0.000,-0.000,184.000,217.000,194.000,158.000,184.000,217.000,194.000,158.000,1.840,2.170,1.940,1.580,0.000,0.000,0.000,0.000,-0.001,0.014,-0.001,0.001,317.000,0.757
1574412539.172,-0.003,0.008,-0.002,-0.000,0.000,0.000,0.000,-0.000,-0.000,184.000,217.000,194.000,158.000,184.000,217.000,194.000,158.000,1.840,2.170,1.940,1.580,0.000,0.000,0.000,0.000,-0.001,0.014,-0.001,0.001,317.000,0.757
1574412539.189,-0.004,0.008,-0.004,-0.000,0.000,0.000,0.000,-0.000,-0.000,184.000,217.000,194.000,158.000,184.000,217.000,194.000,158.000,1.840,2.170,1.940,1.580,0.000,0.000,0.000,0.000,-0.001,0.014,-0.001,0.001,317.000,0.750
1574412539.205,-0.004,0.007,-0.006,-0.000,0.000,0.000,0.000,-0.000,-0.000,184.000,217.000,194.000,158.000,184.000,217.000,194.000,158.000,1.840,2.170,1.940,1.580,0.000,0.000,0.000,0.000,-0.001,0.014,-0.001,0.001,317.000,0.750
1574412539.223,-0.003,0.006,-0.002,-0.000,0.000,0.000,0.000,0.000,-0.001,188.000,219.000,192.000,161.000,184.000,217.000,194.000,158.000,1.880,2.190,1.920,1.610,4.000,2.000,2.000,3.000,-0.002,0.014,-0.001,0.001,317.000,0.768
1574412539.246,-0.003,0.005,0.001,-0.000,0.000,0.000,0.000,0.001,-0.001,188.000,219.000,192.000,161.000,188.000,219.000,192.000,161.000,1.880,2.190,1.920,1.610,0.000,0.000,0.000,0.000,-0.002,0.015,-0.001,0.001,317.000,0.768
1574412539.267,-0.002,0.005,0.004,-0.000,0.000,0.000,0.000,0.001,-0.001,188.000,219.000,192.000,161.000,188.000,219.000,192.000,161.000,1.880,2.190,1.920,1.610,0.000,0.000,0.000,0.000,-0.002,0.015,-0.001,0.001,317.000,0.768
1574412539.281,-0.001,0.004,0.007,-0.000,0.000,0.000,0.000,0.001,-0.001,188.000,219.000,192.000,161.000,188.000,219.000,192.000,161.000,1.880,2.190,1.920,1.610,0.000,0.000,0.000,0.000,-0.002,0.015,-0.001,0.001,317.000,0.768
1574412539.300,-0.000,0.003,0.002,-0.000,0.000,0.000,0.000,0.001,-0.001,188.000,219.000,192.000,161.000,188.000,219.000,192.000,161.000,1.880,2.190,1.920,1.610,0.000,0.000,0.000,0.000,-0.002,0.015,-0.001,0.001,317.000,0.743
1574412539.313,-0.001,0.004,0.002,-0.000,0.000,0.000,0.000,-0.000,0.001,184.000,216.000,197.000,160.000,188.000,219.000,192.000,161.000,1.840,2.160,1.970,1.600,4.000,3.000,5.000,1.000,-0.002,0.015,-0.001,0.001,317.000,0.761
1574412539.331,-0.002,0.005,0.002,-0.000,0.000,0.000,0.000,-0.001,0.002,184.000,216.000,197.000,160.000,184.000,216.000,197.000,160.000,1.840,2.160,1.970,1.600,0.000,0.000,0.000,0.000,-0.002,0.015,-0.001,0.001,317.000,0.761
1574412539.347,-0.002,0.006,-0.001,-0.000,0.000,0.000,0.000,0.000,0.001,187.000,216.000,196.000,161.000,184.000,216.000,197.000,160.000,1.870,2.160,1.960,1.610,3.000,0.000,1.000,1.000,-0.002,0.015,-0.001,0.001,317.000,0.749
1574412539.364,-0.001,0.006,-0.004,-0.000,0.000,0.000,0.000,0.000,0.001,187.000,216.000,196.000,161.000,187.000,216.000,196.000,161.000,1.870,2.160,1.960,1.610,0.000,0.000,0.000,0.000,-0.002,0.014,-0.001,0.001,317.000,0.749
1574412539.382,-0.001,0.007,-0.008,-0.000,0.000,0.000,0.000,0.000,0.001,187.000,216.000,196.000,161.000,187.000,216.000,196.000,161.000,1.870,2.160,1.960,1.610,0.000,0.000,0.000,0.000,-0.002,0.014,-0.001,0.001,317.000,0.746
1574412539.398,-0.001,0.007,-0.011,-0.000,0.000,0.000,0.000,0.000,0.001,187.000,216.000,196.000,161.000,187.000,216.000,196.000,161.000,1.870,2.160,1.960,1.610,0.000,0.000,0.000,0.000,-0.002,0.014,-0.001,0.001,317.000,0.746
1574412539.417,-0.001,0.008,-0.013,-0.000,0.000,0.000,0.000,0.000,0.001,187.000,216.000,196.000,161.000,187.000,216.000,196.000,161.000,1.870,2.160,1.960,1.610,0.000,0.000,0.000,0.000,-0.002,0.013,-0.001,0.001,317.000,0.746
1574412539.433,-0.001,0.007,-0.014,-0.000,0.000,0.000,0.000,0.000,-0.001,189.000,219.000,195.000,162.000,187.000,216.000,196.000,161.000,1.890,2.190,1.950,1.620,2.000,3.000,1.000,1.000,-0.002,0.013,-0.001,0.001,317.000,0.751
1574412539.450,-0.000,0.007,-0.014,-0.000,0.000,0.000,0.000,0.000,-0.001,189.000,219.000,195.000,162.000,189.000,219.000,195.000,162.000,1.890,2.190,1.950,1.620,0.000,0.000,0.000,0.000,-0.002,0.014,-0.001,0.001,317.000,0.751
1574412539.467,-0.001,0.006,-0.018,-0.000,0.000,0.000,0.000,-0.001,-0.001,187.000,219.000,196.000,159.000,189.000,219.000,195.000,162.000,1.870,2.190,1.960,1.590,2.000,0.000,1.000,3.000,-0.001,0.014,-0.001,0.001,317.000,0.737
1574412539.489,-0.002,0.006,-0.022,-0.000,0.000,0.000,0.000,-0.001,-0.001,187.000,219.000,196.000,159.000,187.000,219.000,196.000,159.000,1.870,2.190,1.960,1.590,0.000,0.000,0.000,0.000,-0.001,0.014,-0.001,0.001,317.000,0.737
1574412539.508,-0.003,0.005,-0.025,-0.000,0.000,0.000,0.000,-0.001,-0.001,187.000,219.000,196.000,159.000,187.000,219.000,196.000,159.000,1.870,2.190,1.960,1.590,0.000,0.000,0.000,0.000,-0.001,0.014,-0.001,0.001,317.000,0.737
1574412539.526,-0.004,0.005,-0.027,-0.000,0.000,0.000,0.000,-0.001,-0.001,187.000,219.000,196.000,159.000,187.000,219.000,196.000,159.000,1.870,2.190,1.960,1.590,0.000,0.000,0.000,0.000,-0.000,0.015,-0.001,0.001,317.000,0.737
1574412539.543,-0.003,0.005,-0.024,-0.000,0.000,0.000,0.000,0.000,0.001,186.000,219.000,194.000,165.000,187.000,219.000,196.000,159.000,1.860,2.190,1.940,1.650,1.000,0.000,2.000,6.000,-0.000,0.015,-0.001,0.001,317.000,0.754
1574412539.559,-0.002,0.006,-0.024,-0.000,0.000,0.000,0.000,0.001,0.001,186.000,219.000,194.000,165.000,186.000,219.000,194.000,165.000,1.860,2.190,1.940,1.650,0.000,0.000,0.000,0.000,-0.000,0.016,-0.001,0.001,317.000,0.743
1574412539.577,-0.002,0.007,-0.024,-0.000,0.000,0.000,0.000,0.001,0.001,186.000,219.000,194.000,165.000,186.000,219.000,194.000,165.000,1.860,2.190,1.940,1.650,0.000,0.000,0.000,0.000,-0.000,0.016,-0.001,0.001,317.000,0.743
1574412539.593,-0.003,0.008,-0.025,-0.000,0.000,0.000,0.000,-0.001,0.001,186.000,217.000,199.000,160.000,186.000,219.000,194.000,165.000,1.860,2.170,1.990,1.600,0.000,2.000,5.000,5.000,-0.001,0.016,-0.001,0.001,317.000,0.740
1574412539.610,-0.004,0.008,-0.026,-0.000,0.000,0.000,0.000,-0.001,0.001,186.000,217.000,199.000,160.000,186.000,217.000,199.000,160.000,1.860,2.170,1.990,1.600,0.000,0.000,0.000,0.000,-0.001,0.015,-0.001,0.001,317.000,0.740
1574412539.628,-0.004,0.007,-0.025,-0.000,0.000,0.000,0.000,-0.001,-0.001,186.000,219.000,194.000,158.000,186.000,217.000,199.000,160.000,1.860,2.190,1.940,1.580,0.000,2.000,5.000,2.000,-0.000,0.015,-0.001,0.001,317.000,0.743
1574412539.644,-0.005,0.006,-0.025,-0.000,0.000,0.000,0.000,-0.001,-0.001,186.000,219.000,194.000,158.000,186.000,219.000,194.000,158.000,1.860,2.190,1.940,1.580,0.000,0.000,0.000,0.000,0.000,0.015,-0.001,0.001,317.000,0.743
1574412539.663,-0.005,0.006,-0.024,-0.000,0.000,0.000,0.000,-0.000,-0.001,186.000,219.000,194.000,158.000,186.000,219.000,194.000,158.000,1.860,2.190,1.940,1.580,0.000,0.000,0.000,0.000,0.001,0.015,-0.001,0.001,317.000,0.743
1574412539.679,-0.006,0.005,-0.022,-0.000,0.000,0.000,0.000,-0.000,-0.001,186.000,219.000,194.000,158.000,186.000,219.000,194.000,158.000,1.860,2.190,1.940,1.580,0.000,0.000,0.000,0.000,0.001,0.015,-0.001,0.001,317.000,0.750
1574412539.697,-0.006,0.004,-0.020,-0.000,0.000,0.000,0.000,-0.000,-0.001,186.000,219.000,194.000,158.000,186.000,219.000,194.000,158.000,1.860,2.190,1.940,1.580,0.000,0.000,0.000,0.000,0.001,0.015,-0.001,0.001,317.000,0.750
1574412539.714,-0.007,0.003,-0.020,-0.000,0.000,0.000,0.000,-0.000,-0.001,186.000,219.000,194.000,158.000,186.000,219.000,194.000,158.000,1.860,2.190,1.940,1.580,0.000,0.000,0.000,0.000,0.001,0.015,-0.000,0.001,317.000,0.742
1574412539.738,-0.007,0.003,-0.020,-0.000,0.000,0.000,0.000,-0.000,-0.001,186.000,219.000,194.000,158.000,186.000,219.000,194.000,158.000,1.860,2.190,1.940,1.580,0.000,0.000,0.000,0.000,0.001,0.015,-0.000,0.001,317.000,0.742
1574412539.760,-0.007,0.002,-0.020,-0.000,0.000,0.000,0.000,-0.000,-0.001,186.000,219.000,194.000,158.000,186.000,219.000,194.000,158.000,1.860,2.190,1.940,1.580,0.000,0.000,0.000,0.000,0.001,0.015,-0.000,0.001,317.000,0.742
1574412539.774,-0.008,0.002,-0.021,-0.000,0.000,0.000,0.000,-0.000,-0.001,186.000,219.000,194.000,158.000,186.000,219.000,194.000,158.000,1.860,2.190,1.940,1.580,0.000,0.000,0.000,0.000,0.001,0.015,-0.000,0.001,317.000,0.742
1574412539.789,-0.008,0.001,-0.019,-0.000,0.000,0.000,0.000,-0.000,-0.001,186.000,219.000,194.000,158.000,186.000,219.000,194.000,158.000,1.860,2.190,1.940,1.580,0.000,0.000,0.000,0.000,0.001,0.015,-0.000,0.001,317.000,0.749
1574412539.806,-0.007,0.002,-0.021,-0.000,0.000,0.000,0.000,0.001,0.000,186.000,216.000,193.000,161.000,186.000,219.000,194.000,158.000,1.860,2.160,1.930,1.610,0.000,3.000,1.000,3.000,0.000,0.015,-0.000,0.001,317.000,0.736
1574412539.824,-0.006,0.002,-0.023,-0.000,0.000,0.000,0.000,0.001,0.001,186.000,216.000,193.000,161.000,186.000,216.000,193.000,161.000,1.860,2.160,1.930,1.610,0.000,0.000,0.000,0.000,0.000,0.015,-0.000,0.001,317.000,0.736
1574412539.841,-0.005,0.002,-0.021,-0.000,0.000,0.000,0.000,0.001,0.001,186.000,216.000,193.000,161.000,186.000,216.000,193.000,161.000,1.860,2.160,1.930,1.610,0.000,0.000,0.000,0.000,-0.000,0.015,-0.000,0.001,317.000,0.750
1574412539.859,-0.004,0.003,-0.019,-0.000,0.000,0.000,0.000,0.001,0.001,186.000,216.000,193.000,161.000,186.000,216.000,193.000,161.000,1.860,2.160,1.930,1.610,0.000,0.000,0.000,0.000,-0.001,0.015,-0.000,0.001,317.000,0.750
1574412539.875,-0.003,0.002,-0.022,-0.000,0.000,0.000,0.000,0.001,-0.001,188.000,220.000,192.000,161.000,186.000,216.000,193.000,161.000,1.880,2.200,1.920,1.610,2.000,4.000,1.000,0.000,-0.000,0.015,-0.000,0.001,317.000,0.731
1574412539.893,-0.003,0.001,-0.026,-0.000,0.000,0.000,0.000,0.001,-0.001,188.000,220.000,192.000,161.000,188.000,220.000,192.000,161.000,1.880,2.200,1.920,1.610,0.000,0.000,0.000,0.000,-0.000,0.016,-0.000,0.001,317.000,0.731
1574412539.912,-0.002,0.001,-0.023,-0.000,0.000,0.000,0.000,0.001,0.000,188.000,218.000,193.000,164.000,188.000,220.000,192.000,161.000,1.880,2.180,1.930,1.640,0.000,2.000,1.000,3.000,-0.000,0.016,-0.000,0.001,317.000,0.750
1574412539.927,-0.000,0.002,-0.021,-0.000,0.000,0.000,0.000,0.001,0.000,188.000,218.000,193.000,164.000,188.000,218.000,193.000,164.000,1.880,2.180,1.930,1.640,0.000,0.000,0.000,0.000,-0.000,0.016,-0.000,0.001,317.000,0.750
1574412539.945,0.001,0.002,-0.018,-0.000,0.000,0.000,0.000,0.001,0.000,188.000,218.000,193.000,164.000,188.000,218.000,193.000,164.000,1.880,2.180,1.930,1.640,0.000,0.000,0.000,0.000,-0.000,0.016,-0.000,0.001,317.000,0.750
1574412539.966,0.000,0.001,-0.017,-0.000,0.000,0.000,0.000,-0.000,-0.001,189.000,218.000,196.000,158.000,188.000,218.000,193.000,164.000,1.890,2.180,1.960,1.580,1.000,0.000,3.000,6.000,-0.001,0.015,-0.000,0.001,317.000,0.750
1574412539.985,-0.000,0.001,-0.015,-0.000,0.000,0.000,0.000,-0.000,-0.001,189.000,218.000,196.000,158.000,189.000,218.000,196.000,158.000,1.890,2.180,1.960,1.580,0.000,0.000,0.000,0.000,-0.001,0.014,-0.000,0.001,317.000,0.750
1574412540.003,-0.001,0.000,-0.014,-0.000,0.000,0.000,0.000,-0.001,-0.001,189.000,218.000,196.000,158.000,189.000,218.000,196.000,158.000,1.890,2.180,1.960,1.580,0.000,0.000,0.000,0.000,-0.001,0.014,-0.000,0.001,317.000,0.750
1574412540.023,-0.001,-0.001,-0.013,-0.000,0.000,0.000,0.000,-0.001,-0.001,189.000,218.000,196.000,158.000,189.000,218.000,196.000,158.000,1.890,2.180,1.960,1.580,0.000,0.000,0.000,0.000,-0.001,0.014,-0.000,0.001,317.000,0.750
1574412540.035,-0.002,-0.001,-0.010,-0.000,0.000,0.000,0.000,-0.001,-0.001,189.000,218.000,196.000,158.000,189.000,218.000,196.000,158.000,1.890,2.180,1.960,1.580,0.000,0.000,0.000,0.000,-0.001,0.014,-0.000,0.001,317.000,0.757
1574412540.052,-0.002,-0.002,-0.008,-0.000,0.000,0.000,0.000,-0.000,-0.001,189.000,218.000,196.000,158.000,189.000,218.000,196.000,158.000,1.890,2.180,1.960,1.580,0.000,0.000,0.000,0.000,-0.002,0.014,-0.000,0.001,317.000,0.757
1574412540.069,-0.003,-0.001,-0.006,-0.000,0.000,0.000,0.000,-0.001,0.000,187.000,219.000,197.000,160.000,189.000,218.000,196.000,158.000,1.870,2.190,1.970,1.600,2.000,1.000,1.000,2.000,-0.002,0.014,-0.000,0.001,317.000,0.756
1574412540.086,-0.004,-0.001,-0.004,-0.000,0.000,0.000,0.000,-0.001,0.000,187.000,219.000,197.000,160.000,187.000,219.000,197.000,160.000,1.870,2.190,1.970,1.600,0.000,0.000,0.000,0.000,-0.002,0.014,-0.000,0.001,317.000,0.756
1574412540.105,-0.005,-0.000,-0.003,-0.000,0.000,0.000,0.000,-0.001,0.001,187.000,219.000,197.000,160.000,187.000,219.000,197.000,160.000,1.870,2.190,1.970,1.600,0.000,0.000,0.000,0.000,-0.003,0.014,-0.000,0.001,317.000,0.756
1574412540.121,-0.005,-0.000,-0.005,-0.000,0.000,0.000,0.000,-0.001,0.001,187.000,219.000,197.000,160.000,187.000,219.000,197.000,160.000,1.870,2.190,1.970,1.600,0.000,0.000,0.000,0.000,-0.003,0.014,-0.000,0.001,317.000,0.745
1574412540.138,-0.006,0.000,-0.008,-0.000,0.000,0.000,0.000,-0.001,0.000,187.000,219.000,197.000,160.000,187.000,219.000,197.000,160.000,1.870,2.190,1.970,1.600,0.000,0.000,0.000,0.000,-0.003,0.014,-0.000,0.001,317.000,0.745
1574412540.155,-0.006,0.001,-0.009,-0.000,0.000,0.000,0.000,-0.000,0.001,189.000,219.000,197.000,163.000,187.000,219.000,197.000,160.000,1.890,2.190,1.970,1.630,2.000,0.000,0.000,3.000,-0.003,0.014,-0.000,0.001,317.000,0.747
1574412540.172,-0.006,0.001,-0.010,-0.000,0.000,0.000,0.000,0.000,0.001,189.000,219.000,197.000,163.000,189.000,219.000,197.000,163.000,1.890,2.190,1.970,1.630,0.000,0.000,0.000,0.000,-0.003,0.014,-0.000,0.001,317.000,0.747
1574412540.191,-0.006,0.001,-0.011,-0.000,0.000,0.000,0.000,0.000,0.001,189.000,219.000,197.000,163.000,189.000,219.000,197.000,163.000,1.890,2.190,1.970,1.630,0.000,0.000,0.000,0.000,-0.002,0.015,-0.000,0.001,317.000,0.747
1574412540.214,-0.006,0.001,-0.015,-0.000,0.000,0.000,0.000,0.000,-0.000,190.000,217.000,197.000,159.000,189.000,219.000,197.000,163.000,1.900,2.170,1.970,1.590,1.000,2.000,0.000,4.000,-0.002,0.015,-0.000,0.001,317.000,0.739
1574412540.232,-0.006,0.001,-0.018,-0.000,0.000,0.000,0.000,0.000,-0.000,190.000,217.000,197.000,159.000,190.000,217.000,197.000,159.000,1.900,2.170,1.970,1.590,0.000,0.000,0.000,0.000,-0.001,0.016,-0.000,0.001,317.000,0.739
1574412540.250,-0.006,0.001,-0.020,-0.000,0.000,0.000,0.000,0.000,-0.000,190.000,217.000,197.000,159.000,190.000,217.000,197.000,159.000,1.900,2.170,1.970,1.590,0.000,0.000,0.000,0.000,-0.001,0.015,-0.000,0.001,317.000,0.739
1574412540.263,-0.006,0.000,-0.024,-0.000,0.000,0.000,0.000,-0.000,-0.000,190.000,217.000,197.000,159.000,190.000,217.000,197.000,159.000,1.900,2.170,1.970,1.590,0.000,0.000,0.000,0.000,-0.001,0.014,-0.000,0.001,317.000,0.734
1574412540.280,-0.007,0.000,-0.022,-0.000,0.000,0.000,0.000,-0.001,-0.000,186.000,222.000,196.000,160.000,190.000,217.000,197.000,159.000,1.860,2.220,1.960,1.600,4.000,5.000,1.000,1.000,-0.001,0.014,-0.000,0.001,317.000,0.753
1574412540.297,-0.008,-0.000,-0.019,-0.000,0.000,0.000,0.000,-0.001,-0.000,186.000,222.000,196.000,160.000,186.000,222.000,196.000,160.000,1.860,2.220,1.960,1.600,0.000,0.000,0.000,0.000,-0.000,0.013,-0.000,0.001,317.000,0.753
1574412540.314,-0.008,0.000,-0.014,-0.000,0.000,0.000,0.000,0.000,0.000,188.000,218.000,195.000,162.000,186.000,222.000,196.000,160.000,1.880,2.180,1.950,1.620,2.000,4.000,1.000,2.000,-0.001,0.013,-0.000,0.001,317.000,0.763
1574412540.331,-0.007,0.001,-0.010,-0.000,0.000,0.000,0.000,0.000,0.000,188.000,218.000,195.000,162.000,188.000,218.000,195.000,162.000,1.880,2.180,1.950,1.620,0.000,0.000,0.000,0.000,-0.001,0.013,-0.000,0.001,317.000,0.763
1574412540.349,-0.007,0.001,-0.006,-0.000,0.000,0.000,0.000,0.001,0.000,188.000,218.000,195.000,162.000,188.000,218.000,195.000,162.000,1.880,2.180,1.950,1.620,0.000,0.000,0.000,0.000,-0.001,0.013,-0.000,0.001,317.000,0.763
1574412540.365,-0.007,0.001,-0.005,-0.000,0.000,0.000,0.000,0.000,0.000,189.000,220.000,196.000,163.000,188.000,218.000,195.000,162.000,1.890,2.200,1.960,1.630,1.000,2.000,1.000,1.000,-0.002,0.012,-0.000,0.001,317.000,0.752
1574412540.382,-0.007,0.001,-0.005,-0.000,0.000,0.000,0.000,0.000,0.000,189.000,220.000,196.000,163.000,189.000,220.000,196.000,163.000,1.890,2.200,1.960,1.630,0.000,0.000,0.000,0.000,-0.002,0.012,-0.000,0.001,317.000,0.752
1574412540.400,-0.007,0.001,-0.004,-0.000,0.000,0.000,0.000,0.000,0.000,189.000,220.000,196.000,163.000,189.000,220.000,196.000,163.000,1.890,2.200,1.960,1.630,0.000,0.000,0.000,0.000,-0.001,0.012,-0.000,0.001,317.000,0.753
1574412540.416,-0.006,0.001,-0.004,-0.000,0.000,0.000,0.000,0.000,0.000,189.000,220.000,196.000,163.000,189.000,220.000,196.000,163.000,1.890,2.200,1.960,1.630,0.000,0.000,0.000,0.000,-0.001,0.012,-0.000,0.001,317.000,0.753
1574412540.434,-0.007,-0.000,-0.006,-0.000,0.000,0.000,0.000,-0.001,-0.002,191.000,221.000,197.000,158.000,189.000,220.000,196.000,163.000,1.910,2.210,1.970,1.580,2.000,1.000,1.000,5.000,-0.000,0.012,-0.000,0.001,317.000,0.747
1574412540.458,-0.008,-0.002,-0.007,-0.000,0.000,0.000,0.000,-0.001,-0.002,191.000,221.000,197.000,158.000,191.000,221.000,197.000,158.000,1.910,2.210,1.970,1.580,0.000,0.000,0.000,0.000,0.000,0.013,-0.000,0.001,317.000,0.747
1574412540.477,-0.009,-0.003,-0.009,-0.000,0.000,0.000,0.000,-0.001,-0.002,191.000,221.000,197.000,158.000,191.000,221.000,197.000,158.000,1.910,2.210,1.970,1.580,0.000,0.000,0.000,0.000,0.001,0.012,-0.000,0.001,317.000,0.747
1574412540.493,-0.010,-0.004,-0.010,-0.000,0.000,0.000,0.000,-0.001,-0.002,191.000,221.000,197.000,158.000,191.000,221.000,197.000,158.000,1.910,2.210,1.970,1.580,0.000,0.000,0.000,0.000,0.001,0.012,-0.000,0.001,317.000,0.747
1574412540.507,-0.008,-0.002,-0.010,-0.000,0.000,0.000,0.000,0.001,0.002,189.000,212.000,197.000,162.000,191.000,221.000,197.000,158.000,1.890,2.120,1.970,1.620,2.000,9.000,0.000,4.000,0.001,0.012,-0.000,0.001,317.000,0.754
1574412540.523,-0.007,-0.001,-0.014,-0.000,0.000,0.000,0.000,0.001,0.002,189.000,212.000,197.000,162.000,189.000,212.000,197.000,162.000,1.890,2.120,1.970,1.620,0.000,0.000,0.000,0.000,0.001,0.012,-0.000,0.001,317.000,0.737
1574412540.541,-0.005,0.001,-0.018,-0.000,0.000,0.000,0.000,0.001,0.002,189.000,212.000,197.000,162.000,189.000,212.000,197.000,162.000,1.890,2.120,1.970,1.620,0.000,0.000,0.000,0.000,0.000,0.012,-0.000,0.001,317.000,0.737
1574412540.558,-0.005,0.002,-0.023,-0.000,0.000,0.000,0.000,0.001,0.002,188.000,218.000,196.000,165.000,189.000,212.000,197.000,162.000,1.880,2.180,1.960,1.650,1.000,6.000,1.000,3.000,0.000,0.012,-0.000,0.001,317.000,0.730
1574412540.575,-0.004,0.003,-0.027,-0.000,0.000,0.000,0.000,0.001,0.002,188.000,218.000,196.000,165.000,188.000,218.000,196.000,165.000,1.880,2.180,1.960,1.650,0.000,0.000,0.000,0.000,0.001,0.013,-0.000,0.001,317.000,0.730
1574412540.593,-0.003,0.004,-0.031,-0.000,0.000,0.000,0.000,0.001,0.001,188.000,218.000,196.000,165.000,188.000,218.000,196.000,165.000,1.880,2.180,1.960,1.650,0.000,0.000,0.000,0.000,0.001,0.013,-0.000,0.001,317.000,0.730
1574412540.609,-0.003,0.005,-0.029,-0.000,0.000,0.000,0.000,0.000,0.001,186.000,218.000,195.000,164.000,188.000,218.000,196.000,165.000,1.860,2.180,1.950,1.640,2.000,0.000,1.000,1.000,0.001,0.013,-0.000,0.001,317.000,0.750
1574412540.627,-0.003,0.006,-0.026,-0.000,0.000,0.000,0.000,0.000,0.001,186.000,218.000,195.000,164.000,186.000,218.000,195.000,164.000,1.860,2.180,1.950,1.640,0.000,0.000,0.000,0.000,0.000,0.013,-0.000,0.001,317.000,0.750
1574412540.643,-0.002,0.006,-0.025,-0.000,0.000,0.000,0.000,0.001,0.001,189.000,218.000,196.000,164.000,186.000,218.000,195.000,164.000,1.890,2.180,1.960,1.640,3.000,0.000,1.000,0.000,0.000,0.013,-0.000,0.001,317.000,0.745
1574412540.661,-0.001,0.006,-0.024,-0.000,0.000,0.000,0.000,0.001,0.001,189.000,218.000,196.000,164.000,189.000,218.000,196.000,164.000,1.890,2.180,1.960,1.640,0.000,0.000,0.000,0.000,-0.000,0.013,-0.000,0.001,317.000,0.745
1574412540.680,-0.001,0.007,-0.021,-0.000,0.000,0.000,0.000,0.000,0.000,189.000,218.000,196.000,164.000,189.000,218.000,196.000,164.000,1.890,2.180,1.960,1.640,0.000,0.000,0.000,0.000,0.000,0.013,-0.000,0.001,317.000,0.752
1574412540.703,-0.000,0.007,-0.018,-0.000,0.000,0.000,0.000,0.000,0.000,189.000,218.000,196.000,164.000,189.000,218.000,196.000,164.000,1.890,2.180,1.960,1.640,0.000,0.000,0.000,0.000,0.000,0.013,-0.000,0.001,317.000,0.752
1574412540.722,-0.000,0.007,-0.016,-0.000,0.000,0.000,0.000,0.001,0.000,189.000,218.000,196.000,164.000,189.000,218.000,196.000,164.000,1.890,2.180,1.960,1.640,0.000,0.000,0.000,0.000,0.000,0.014,-0.000,0.001,317.000,0.752
1574412540.741,0.000,0.007,-0.014,-0.000,0.000,0.000,0.000,0.001,0.000,186.000,221.000,193.000,161.000,189.000,218.000,196.000,164.000,1.890,2.180,1.960,1.640,0.000,0.000,0.000,0.000,-0.000,0.014,-0.000,0.001,317.000,0.764
1574412540.754,0.000,0.007,-0.009,-0.000,0.000,0.000,0.000,-0.000,-0.001,186.000,221.000,193.000,161.000,189.000,218.000,196.000,164.000,1.860,2.210,1.930,1.610,3.000,3.000,3.000,3.000,-0.000,0.015,-0.000,0.001,317.000,0.764
1574412540.770,0.001,0.007,-0.005,-0.000,0.000,0.000,0.000,0.000,0.000,187.000,219.000,194.000,165.000,186.000,221.000,193.000,161.000,1.870,2.190,1.940,1.650,1.000,2.000,1.000,4.000,-0.001,0.015,-0.000,0.001,317.000,0.759
1574412540.787,0.001,0.007,-0.003,-0.000,0.000,0.000,0.000,0.001,0.001,187.000,219.000,194.000,165.000,187.000,219.000,194.000,165.000,1.870,2.190,1.940,1.650,0.000,0.000,0.000,0.000,-0.001,0.015,-0.000,0.001,317.000,0.759
1574412540.804,0.002,0.008,-0.001,-0.000,0.000,0.000,0.000,0.001,0.001,187.000,219.000,194.000,165.000,187.000,219.000,194.000,165.000,1.870,2.190,1.940,1.650,0.000,0.000,0.000,0.000,-0.002,0.016,-0.000,0.001,317.000,0.758
1574412540.822,0.002,0.008,0.001,-0.000,0.000,0.000,0.000,0.001,0.001,187.000,219.000,194.000,165.000,187.000,219.000,194.000,165.000,1.870,2.190,1.940,1.650,0.000,0.000,0.000,0.000,-0.002,0.015,-0.000,0.001,317.000,0.758
1574412540.839,0.003,0.008,-0.002,-0.000,0.000,0.000,0.000,0.000,0.000,184.000,218.000,192.000,162.000,187.000,219.000,194.000,165.000,1.840,2.180,1.920,1.620,3.000,1.000,2.000,3.000,-0.002,0.015,-0.000,0.001,317.000,0.745
1574412540.857,0.003,0.008,-0.005,-0.000,0.000,0.000,0.000,0.000,0.000,184.000,218.000,192.000,162.000,184.000,218.000,192.000,162.000,1.840,2.180,1.920,1.620,0.000,0.000,0.000,0.000,-0.002,0.014,-0.000,0.001,317.000,0.745
1574412540.876,0.003,0.008,-0.008,-0.000,0.000,0.000,0.000,0.000,0.000,184.000,218.000,192.000,162.000,184.000,218.000,192.000,162.000,1.840,2.180,1.920,1.620,0.000,0.000,0.000,0.000,-0.002,0.015,-0.000,0.001,317.000,0.745
1574412540.892,0.003,0.008,-0.008,-0.000,0.000,0.000,0.000,0.000,-0.000,188.000,219.000,195.000,162.000,184.000,218.000,192.000,162.000,1.880,2.190,1.950,1.620,4.000,1.000,3.000,0.000,-0.002,0.015,-0.000,0.001,317.000,0.754
1574412540.909,0.003,0.008,-0.008,-0.000,0.000,0.000,0.000,-0.000,-0.001,188.000,219.000,195.000,162.000,188.000,219.000,195.000,162.000,1.880,2.190,1.950,1.620,0.000,0.000,0.000,0.000,-0.001,0.015,-0.000,0.001,317.000,0.754
1574412540.934,0.003,0.007,-0.006,-0.000,0.000,0.000,0.000,-0.000,-0.001,188.000,219.000,195.000,162.000,188.000,219.000,195.000,162.000,1.880,2.190,1.950,1.620,0.000,0.000,0.000,0.000,-0.001,0.015,-0.000,0.001,317.000,0.758
1574412540.956,0.003,0.007,-0.005,-0.000,0.000,0.000,0.000,-0.000,-0.001,188.000,219.000,195.000,162.000,188.000,219.000,195.000,162.000,1.880,2.190,1.950,1.620,0.000,0.000,0.000,0.000,-0.001,0.015,-0.000,0.001,317.000,0.758
1574412540.972,0.003,0.007,-0.004,-0.000,0.000,0.000,0.000,-0.000,-0.001,188.000,219.000,195.000,162.000,188.000,219.000,195.000,162.000,1.880,2.190,1.950,1.620,0.000,0.000,0.000,0.000,-0.001,0.014,-0.000,0.001,317.000,0.758
1574412540.991,0.003,0.006,-0.003,-0.000,0.000,0.000,0.000,-0.000,-0.000,188.000,219.000,195.000,162.000,188.000,219.000,195.000,162.000,1.880,2.190,1.950,1.620,0.000,0.000,0.000,0.000,-0.002,0.014,-0.000,0.001,317.000,0.758
1574412541.003,0.002,0.007,-0.003,-0.000,0.000,0.000,0.000,-0.001,0.000,183.000,220.000,194.000,161.000,188.000,219.000,195.000,162.000,1.830,2.200,1.940,1.610,5.000,1.000,1.000,1.000,-0.002,0.014,-0.000,0.001,317.000,0.758
1574412541.020,0.001,0.007,-0.002,-0.000,0.000,0.000,0.000,-0.001,0.000,183.000,220.000,194.000,161.000,183.000,220.000,194.000,161.000,1.830,2.200,1.940,1.610,0.000,0.000,0.000,0.000,-0.002,0.014,-0.000,0.001,317.000,0.758
1574412541.040,0.000,0.007,-0.002,-0.000,0.000,0.000,0.000,-0.001,0.000,183.000,220.000,194.000,161.000,183.000,220.000,194.000,161.000,1.830,2.200,1.940,1.610,0.000,0.000,0.000,0.000,-0.002,0.014,-0.000,0.001,317.000,0.758
1574412541.055,-0.001,0.007,-0.001,-0.000,0.000,0.000,0.000,-0.001,0.000,183.000,220.000,194.000,161.000,183.000,220.000,194.000,161.000,1.830,2.200,1.940,1.610,0.000,0.000,0.000,0.000,-0.002,0.014,-0.000,0.001,317.000,0.763
1574412541.072,-0.001,0.008,0.001,-0.000,0.000,0.000,0.000,-0.001,0.000,183.000,220.000,194.000,161.000,183.000,220.000,194.000,161.000,1.830,2.200,1.940,1.610,0.000,0.000,0.000,0.000,-0.002,0.013,-0.000,0.001,317.000,0.763
1574412541.089,-0.002,0.008,-0.001,-0.000,0.000,0.000,0.000,-0.001,0.000,183.000,220.000,194.000,161.000,183.000,220.000,194.000,161.000,1.830,2.200,1.940,1.610,0.000,0.000,0.000,0.000,-0.002,0.013,-0.000,0.001,317.000,0.753
1574412541.107,-0.003,0.008,-0.003,-0.000,0.000,0.000,0.000,-0.001,0.000,183.000,220.000,194.000,161.000,183.000,220.000,194.000,161.000,1.830,2.200,1.940,1.610,0.000,0.000,0.000,0.000,-0.001,0.014,-0.000,0.001,317.000,0.753
1574412541.124,-0.004,0.008,-0.007,-0.000,0.000,0.000,0.000,-0.001,0.000,183.000,220.000,194.000,161.000,183.000,220.000,194.000,161.000,1.830,2.200,1.940,1.610,0.000,0.000,0.000,0.000,-0.001,0.014,-0.000,0.001,317.000,0.742
1574412541.142,-0.004,0.008,-0.011,-0.000,0.000,0.000,0.000,-0.001,0.000,183.000,220.000,194.000,161.000,183.000,220.000,194.000,161.000,1.830,2.200,1.940,1.610,0.000,0.000,0.000,0.000,-0.001,0.014,-0.000,0.001,317.000,0.742
1574412541.165,-0.005,0.008,-0.015,-0.000,0.000,0.000,0.000,-0.001,0.000,183.000,220.000,194.000,161.000,183.000,220.000,194.000,161.000,1.830,2.200,1.940,1.610,0.000,0.000,0.000,0.000,-0.002,0.014,-0.000,0.001,317.000,0.742
1574412541.182,-0.006,0.009,-0.018,-0.000,0.000,0.000,0.000,-0.001,0.000,183.000,220.000,194.000,161.000,183.000,220.000,194.000,161.000,1.830,2.200,1.940,1.610,0.000,0.000,0.000,0.000,-0.002,0.014,-0.000,0.001,317.000,0.742
1574412541.206,-0.006,0.009,-0.020,-0.000,0.000,0.000,0.000,-0.001,0.000,183.000,220.000,194.000,161.000,183.000,220.000,194.000,161.000,1.830,2.200,1.940,1.610,0.000,0.000,0.000,0.000,-0.003,0.013,-0.000,0.001,317.000,0.738
1574412541.221,-0.007,0.009,-0.023,-0.000,0.000,0.000,0.000,-0.001,0.000,183.000,220.000,194.000,161.000,183.000,220.000,194.000,161.000,1.830,2.200,1.940,1.610,0.000,0.000,0.000,0.000,-0.003,0.013,-0.000,0.001,317.000,0.738
1574412541.236,-0.007,0.009,-0.026,-0.000,0.000,0.000,0.000,-0.001,0.000,183.000,220.000,194.000,161.000,183.000,220.000,194.000,161.000,1.830,2.200,1.940,1.610,0.000,0.000,0.000,0.000,-0.002,0.012,-0.000,0.001,317.000,0.738
1574412541.253,-0.008,0.009,-0.024,-0.000,0.000,0.000,0.000,-0.001,0.000,183.000,220.000,194.000,161.000,183.000,220.000,194.000,161.000,1.830,2.200,1.940,1.610,0.000,0.000,0.000,0.000,-0.003,0.012,-0.000,0.001,317.000,0.752
1574412541.269,-0.008,0.009,-0.022,-0.000,0.000,0.000,0.000,-0.001,0.000,183.000,220.000,194.000,161.000,183.000,220.000,194.000,161.000,1.830,2.200,1.940,1.610,0.000,0.000,0.000,0.000,-0.003,0.013,-0.000,0.001,317.000,0.752
1574412541.286,-0.009,0.009,-0.022,-0.000,0.000,0.000,0.000,-0.000,0.000,183.000,220.000,194.000,161.000,183.000,220.000,194.000,161.000,1.830,2.200,1.940,1.610,0.000,0.000,0.000,0.000,-0.003,0.013,-0.000,0.001,317.000,0.743
1574412541.303,-0.009,0.009,-0.023,-0.000,0.000,0.000,0.000,-0.000,0.000,183.000,220.000,194.000,161.000,183.000,220.000,194.000,161.000,1.830,2.200,1.940,1.610,0.000,0.000,0.000,0.000,-0.004,0.013,-0.000,0.001,317.000,0.743
1574412541.322,-0.010,0.009,-0.023,-0.000,0.000,0.000,0.000,-0.000,0.000,183.000,220.000,194.000,161.000,183.000,220.000,194.000,161.000,1.830,2.200,1.940,1.610,0.000,0.000,0.000,0.000,-0.003,0.013,-0.000,0.001,317.000,0.743
1574412541.338,-0.010,0.009,-0.026,-0.000,0.000,0.000,0.000,-0.000,0.000,183.000,220.000,194.000,161.000,183.000,220.000,194.000,161.000,1.830,2.200,1.940,1.610,0.000,0.000,0.000,0.000,-0.003,0.013,-0.000,0.001,317.000,0.732
1574412541.354,-0.010,0.010,-0.029,-0.000,0.000,0.000,0.000,-0.000,0.000,183.000,220.000,194.000,161.000,183.000,220.000,194.000,161.000,1.830,2.200,1.940,1.610,0.000,0.000,0.000,0.000,-0.003,0.013,-0.000,0.001,317.000,0.732
1574412541.372,-0.011,0.010,-0.024,-0.000,0.000,0.000,0.000,-0.000,0.000,183.000,220.000,194.000,161.000,183.000,220.000,194.000,161.000,1.830,2.200,1.940,1.610,0.000,0.000,0.000,0.000,-0.003,0.013,-0.000,0.001,317.000,0.758
1574412541.389,-0.011,0.010,-0.019,-0.000,0.000,0.000,0.000,-0.000,0.000,183.000,220.000,194.000,161.000,183.000,220.000,194.000,161.000,1.830,2.200,1.940,1.610,0.000,0.000,0.000,0.000,-0.003,0.013,-0.000,0.001,317.000,0.758
1574412541.410,-0.012,0.010,-0.015,-0.000,0.000,0.000,0.000,-0.000,0.000,183.000,220.000,194.000,161.000,183.000,220.000,194.000,161.000,1.830,2.200,1.940,1.610,0.000,0.000,0.000,0.000,-0.003,0.013,-0.000,0.001,317.000,0.758
1574412541.429,-0.011,0.008,-0.012,-0.000,0.000,0.000,0.000,0.001,-0.002,193.000,219.000,196.000,162.000,183.000,220.000,194.000,161.000,1.930,2.190,1.960,1.620,10.000,1.000,2.000,1.000,-0.002,0.013,-0.000,0.001,317.000,0.754
1574412541.446,-0.010,0.007,-0.010,-0.000,0.000,0.000,0.000,0.001,-0.002,193.000,219.000,196.000,162.000,193.000,219.000,196.000,162.000,1.930,2.190,1.960,1.620,0.000,0.000,0.000,0.000,-0.001,0.013,-0.000,0.001,317.000,0.754
1574412541.468,-0.009,0.006,-0.007,-0.000,0.000,0.000,0.000,0.001,-0.002,189.000,218.000,199.000,164.000,193.000,219.000,196.000,162.000,1.930,2.190,1.960,1.620,0.000,0.000,0.000,0.000,-0.000,0.013,-0.000,0.001,317.000,0.750
1574412541.481,-0.009,0.007,-0.007,-0.000,0.000,0.000,0.000,0.000,0.000,189.000,218.000,199.000,164.000,193.000,219.000,196.000,162.000,1.890,2.180,1.990,1.640,4.000,1.000,3.000,2.000,-0.000,0.013,-0.000,0.001,317.000,0.750
1574412541.497,-0.009,0.007,-0.006,-0.000,0.000,0.000,0.000,0.000,0.001,189.000,218.000,199.000,164.000,189.000,218.000,199.000,164.000,1.890,2.180,1.990,1.640,0.000,0.000,0.000,0.000,-0.001,0.014,-0.000,0.001,317.000,0.753
1574412541.514,-0.009,0.008,-0.005,-0.000,0.000,0.000,0.000,0.000,0.001,189.000,218.000,199.000,164.000,189.000,218.000,199.000,164.000,1.890,2.180,1.990,1.640,0.000,0.000,0.000,0.000,-0.001,0.014,-0.000,0.001,317.000,0.753
1574412541.531,-0.008,0.008,-0.008,-0.000,0.000,0.000,0.000,0.000,0.000,184.000,220.000,192.000,163.000,189.000,218.000,199.000,164.000,1.840,2.200,1.920,1.630,5.000,2.000,7.000,1.000,-0.002,0.014,-0.000,0.001,317.000,0.742
1574412541.548,-0.008,0.008,-0.010,-0.000,0.000,0.000,0.000,0.001,0.000,184.000,220.000,192.000,163.000,184.000,220.000,192.000,163.000,1.840,2.200,1.920,1.630,0.000,0.000,0.000,0.000,-0.002,0.014,-0.000,0.001,317.000,0.742
1574412541.566,-0.007,0.008,-0.013,-0.000,0.000,0.000,0.000,0.000,0.000,184.000,220.000,192.000,163.000,184.000,220.000,192.000,163.000,1.840,2.200,1.920,1.630,0.000,0.000,0.000,0.000,-0.002,0.014,-0.000,0.001,317.000,0.742
1574412541.583,-0.008,0.007,-0.010,-0.000,0.000,0.000,0.000,-0.000,-0.001,188.000,219.000,196.000,159.000,184.000,220.000,192.000,163.000,1.880,2.190,1.960,1.590,4.000,1.000,4.000,4.000,-0.002,0.013,-0.000,0.001,317.000,0.762
1574412541.600,-0.008,0.007,-0.007,-0.000,0.000,0.000,0.000,-0.000,-0.001,188.000,219.000,196.000,159.000,188.000,219.000,196.000,159.000,1.880,2.190,1.960,1.590,0.000,0.000,0.000,0.000,-0.002,0.013,-0.000,0.001,317.000,0.762
1574412541.617,-0.009,0.006,-0.010,-0.000,0.000,0.000,0.000,-0.000,-0.001,188.000,219.000,196.000,159.000,188.000,219.000,196.000,159.000,1.880,2.190,1.960,1.590,0.000,0.000,0.000,0.000,-0.001,0.013,-0.000,0.001,317.000,0.740
1574412541.634,-0.009,0.005,-0.013,-0.000,0.000,0.000,0.000,-0.000,-0.001,188.000,219.000,196.000,159.000,188.000,219.000,196.000,159.000,1.880,2.190,1.960,1.590,0.000,0.000,0.000,0.000,-0.001,0.014,-0.000,0.001,317.000,0.740
1574412541.659,-0.009,0.005,-0.016,-0.000,0.000,0.000,0.000,-0.000,-0.001,188.000,219.000,196.000,159.000,188.000,219.000,196.000,159.000,1.880,2.190,1.960,1.590,0.000,0.000,0.000,0.000,-0.001,0.014,-0.000,0.001,317.000,0.740
1574412541.677,-0.010,0.004,-0.019,-0.000,0.000,0.000,0.000,-0.000,-0.001,188.000,219.000,196.000,159.000,188.000,219.000,196.000,159.000,1.880,2.190,1.960,1.590,0.000,0.000,0.000,0.000,-0.000,0.015,-0.000,0.001,317.000,0.740
1574412541.690,-0.010,0.004,-0.018,-0.000,0.000,0.000,0.000,-0.000,-0.001,188.000,219.000,196.000,160.000,188.000,219.000,196.000,159.000,1.880,2.190,1.960,1.600,0.000,0.000,0.000,1.000,-0.000,0.015,-0.000,0.001,317.000,0.750
1574412541.713,-0.010,0.003,-0.017,-0.000,0.000,0.000,0.000,-0.000,-0.001,188.000,219.000,196.000,160.000,188.000,219.000,196.000,160.000,1.880,2.190,1.960,1.600,0.000,0.000,0.000,0.000,-0.000,0.015,-0.000,0.001,317.000,0.750
1574412541.728,-0.010,0.003,-0.019,-0.000,0.000,0.000,0.000,0.000,-0.000,186.000,219.000,194.000,161.000,188.000,219.000,196.000,160.000,1.860,2.190,1.940,1.610,2.000,0.000,2.000,1.000,-0.001,0.015,-0.000,0.001,317.000,0.740
1574412541.744,-0.008,0.004,-0.018,-0.000,0.000,0.000,0.000,0.001,0.001,188.000,218.000,194.000,166.000,186.000,219.000,194.000,161.000,1.880,2.180,1.940,1.660,2.000,1.000,0.000,5.000,-0.001,0.015,-0.000,0.001,317.000,0.750
1574412541.761,-0.007,0.005,-0.017,-0.000,0.000,0.000,0.000,0.001,0.001,188.000,218.000,194.000,166.000,188.000,218.000,194.000,166.000,1.880,2.180,1.940,1.660,0.000,0.000,0.000,0.000,-0.001,0.015,-0.000,0.001,317.000,0.750
1574412541.778,-0.005,0.005,-0.014,-0.000,0.000,0.000,0.000,0.001,0.001,188.000,218.000,194.000,166.000,188.000,218.000,194.000,166.000,1.880,2.180,1.940,1.660,0.000,0.000,0.000,0.000,-0.001,0.015,-0.000,0.001,317.000,0.758
1574412541.795,-0.004,0.006,-0.011,-0.000,0.000,0.000,0.000,0.001,0.001,188.000,218.000,194.000,166.000,188.000,218.000,194.000,166.000,1.880,2.180,1.940,1.660,0.000,0.000,0.000,0.000,-0.001,0.015,-0.000,0.001,317.000,0.758
1574412541.812,-0.004,0.007,-0.006,-0.000,0.000,0.000,0.000,0.000,0.001,187.000,219.000,197.000,164.000,188.000,218.000,194.000,166.000,1.870,2.190,1.970,1.640,1.000,1.000,3.000,2.000,-0.001,0.015,-0.000,0.001,317.000,0.763
1574412541.830,-0.004,0.007,-0.003,-0.000,0.000,0.000,0.000,-0.000,0.001,187.000,219.000,197.000,164.000,187.000,219.000,197.000,164.000,1.870,2.190,1.970,1.640,0.000,0.000,0.000,0.000,-0.002,0.015,-0.000,0.001,317.000,0.763
1574412541.848,-0.005,0.008,0.000,-0.000,0.000,0.000,0.000,-0.000,0.001,187.000,219.000,197.000,164.000,187.000,219.000,197.000,164.000,1.870,2.190,1.970,1.640,0.000,0.000,0.000,0.000,-0.002,0.014,-0.000,0.001,317.000,0.763
1574412541.864,-0.005,0.008,-0.006,-0.000,0.000,0.000,0.000,-0.000,0.000,185.000,219.000,195.000,160.000,187.000,219.000,197.000,164.000,1.850,2.190,1.950,1.600,2.000,0.000,2.000,4.000,-0.002,0.014,-0.000,0.001,317.000,0.732
1574412541.882,-0.006,0.008,-0.012,-0.000,0.000,0.000,0.000,-0.001,-0.000,185.000,219.000,195.000,160.000,185.000,219.000,195.000,160.000,1.850,2.190,1.950,1.600,0.000,0.000,0.000,0.000,-0.003,0.014,-0.000,0.001,317.000,0.732
1574412541.902,-0.006,0.008,-0.018,-0.000,0.000,0.000,0.000,-0.001,-0.000,185.000,219.000,195.000,160.000,185.000,219.000,195.000,160.000,1.850,2.190,1.950,1.600,0.000,0.000,0.000,0.000,-0.003,0.014,-0.000,0.001,317.000,0.732
1574412541.922,-0.007,0.008,-0.022,-0.000,0.000,0.000,0.000,-0.001,-0.000,185.000,219.000,195.000,160.000,185.000,219.000,195.000,160.000,1.850,2.190,1.950,1.600,0.000,0.000,0.000,0.000,-0.003,0.014,-0.000,0.001,317.000,0.734
1574412541.939,-0.007,0.008,-0.025,-0.000,0.000,0.000,0.000,-0.000,-0.000,185.000,219.000,195.000,160.000,185.000,219.000,195.000,160.000,1.850,2.190,1.950,1.600,0.000,0.000,0.000,0.000,-0.003,0.014,-0.000,0.001,317.000,0.734
1574412541.958,-0.007,0.007,-0.028,-0.000,0.000,0.000,0.000,-0.000,-0.000,185.000,219.000,195.000,160.000,185.000,219.000,195.000,160.000,1.850,2.190,1.950,1.600,0.000,0.000,0.000,0.000,-0.003,0.014,-0.000,0.001,317.000,0.734
1574412541.974,-0.007,0.008,-0.028,-0.000,0.000,0.000,0.000,0.000,0.000,189.000,219.000,190.000,161.000,185.000,219.000,195.000,160.000,1.870,2.190,1.950,1.630,2.000,0.000,0.000,3.000,-0.003,0.014,-0.000,0.001,317.000,0.757
1574412541.990,-0.006,0.006,-0.023,-0.000,0.000,0.000,0.000,0.001,-0.002,189.000,219.000,190.000,161.000,187.000,219.000,195.000,163.000,1.890,2.190,1.900,1.610,2.000,0.000,5.000,2.000,-0.002,0.014,-0.000,0.001,317.000,0.757
1574412542.007,-0.004,0.004,-0.019,-0.000,0.000,0.000,0.000,0.001,-0.002,189.000,219.000,190.000,161.000,189.000,219.000,190.000,161.000,1.890,2.190,1.900,1.610,0.000,0.000,0.000,0.000,-0.002,0.014,-0.000,0.001,317.000,0.757
1574412542.024,-0.002,0.004,-0.016,-0.000,0.000,0.000,0.000,0.002,-0.001,190.000,216.000,192.000,161.000,189.000,219.000,190.000,161.000,1.900,2.160,1.920,1.610,1.000,3.000,2.000,0.000,-0.001,0.015,-0.000,0.001,317.000,0.756
1574412542.041,-0.001,0.003,-0.013,-0.000,0.000,0.000,0.000,0.002,-0.001,190.000,216.000,192.000,161.000,190.000,216.000,192.000,161.000,1.900,2.160,1.920,1.610,0.000,0.000,0.000,0.000,-0.001,0.015,-0.000,0.001,317.000,0.756
1574412542.059,0.001,0.002,-0.016,-0.000,0.000,0.000,0.000,0.002,-0.001,190.000,216.000,192.000,161.000,190.000,216.000,192.000,161.000,1.900,2.160,1.920,1.610,0.000,0.000,0.000,0.000,-0.001,0.015,-0.000,0.001,317.000,0.737
1574412542.076,0.002,0.002,-0.018,-0.000,0.000,0.000,0.000,0.002,-0.001,190.000,216.000,192.000,161.000,190.000,216.000,192.000,161.000,1.900,2.160,1.920,1.610,0.000,0.000,0.000,0.000,-0.001,0.015,-0.000,0.001,317.000,0.737
1574412542.094,0.004,0.001,-0.021,-0.000,0.000,0.000,0.000,0.002,-0.001,190.000,216.000,192.000,161.000,190.000,216.000,192.000,161.000,1.900,2.160,1.920,1.610,0.000,0.000,0.000,0.000,-0.001,0.015,-0.000,0.001,317.000,0.737
1574412542.111,0.003,-0.000,-0.017,-0.000,0.000,0.000,0.000,-0.000,-0.002,190.000,222.000,196.000,160.000,190.000,216.000,192.000,161.000,1.900,2.220,1.960,1.600,0.000,6.000,4.000,1.000,-0.001,0.014,-0.000,0.001,317.000,0.757
1574412542.131,0.002,-0.001,-0.014,-0.000,0.000,0.000,0.000,-0.001,-0.002,190.000,222.000,196.000,160.000,190.000,222.000,196.000,160.000,1.900,2.220,1.960,1.600,0.000,0.000,0.000,0.000,-0.001,0.014,-0.000,0.001,317.000,0.757
1574412542.152,0.001,-0.002,-0.011,-0.000,0.000,0.000,0.000,-0.001,-0.002,190.000,222.000,196.000,160.000,190.000,222.000,196.000,160.000,1.900,2.220,1.960,1.600,0.000,0.000,0.000,0.000,-0.001,0.013,-0.000,0.001,317.000,0.757
1574412542.172,-0.000,-0.003,-0.008,-0.000,0.000,0.000,0.000,-0.001,-0.002,190.000,218.000,196.000,160.000,190.000,222.000,196.000,160.000,1.900,2.220,1.960,1.600,0.000,0.000,0.000,0.000,-0.001,0.013,-0.000,0.001,317.000,0.736
1574412542.190,-0.000,-0.003,-0.012,-0.000,0.000,0.000,0.000,-0.000,-0.001,190.000,218.000,196.000,160.000,190.000,222.000,196.000,160.000,1.900,2.180,1.960,1.600,0.000,4.000,0.000,0.000,-0.001,0.012,-0.000,0.001,317.000,0.736
1574412542.203,-0.000,-0.003,-0.013,-0.000,0.000,0.000,0.000,-0.000,-0.000,190.000,218.000,196.000,160.000,190.000,218.000,196.000,160.000,1.900,2.180,1.960,1.600,0.000,0.000,0.000,0.000,-0.001,0.013,-0.000,0.001,317.000,0.745
1574412542.220,0.000,-0.003,-0.017,-0.000,0.000,0.000,0.000,0.001,0.000,192.000,218.000,196.000,163.000,190.000,218.000,196.000,160.000,1.920,2.180,1.960,1.630,2.000,0.000,0.000,3.000,-0.001,0.013,-0.000,0.001,317.000,0.733
1574412542.237,0.001,-0.003,-0.020,-0.000,0.000,0.000,0.000,0.001,0.000,192.000,218.000,196.000,163.000,192.000,218.000,196.000,163.000,1.920,2.180,1.960,1.630,0.000,0.000,0.000,0.000,-0.001,0.013,-0.000,0.001,317.000,0.733
1574412542.255,0.002,-0.003,-0.024,-0.000,0.000,0.000,0.000,0.001,0.000,192.000,218.000,196.000,163.000,192.000,218.000,196.000,163.000,1.920,2.180,1.960,1.630,0.000,0.000,0.000,0.000,-0.001,0.014,-0.000,0.001,317.000,0.733
1574412542.272,0.002,-0.003,-0.024,-0.000,0.000,0.000,0.000,0.000,0.001,190.000,219.000,196.000,164.000,192.000,218.000,196.000,163.000,1.900,2.190,1.960,1.640,2.000,1.000,0.000,1.000,-0.001,0.014,-0.000,0.001,317.000,0.742
1574412542.289,0.002,-0.002,-0.024,-0.000,0.000,0.000,0.000,0.000,0.001,190.000,219.000,196.000,164.000,190.000,219.000,196.000,164.000,1.900,2.190,1.960,1.640,0.000,0.000,0.000,0.000,-0.001,0.014,-0.000,0.001,317.000,0.742
1574412542.306,0.003,-0.002,-0.024,-0.000,0.000,0.000,0.000,0.001,0.001,187.000,219.000,192.000,165.000,190.000,219.000,196.000,164.000,1.870,2.190,1.920,1.650,3.000,0.000,4.000,1.000,-0.001,0.015,-0.000,0.001,317.000,0.744
1574412542.323,0.004,-0.001,-0.023,-0.000,0.000,0.000,0.000,0.001,0.001,187.000,219.000,192.000,165.000,187.000,219.000,192.000,165.000,1.870,2.190,1.920,1.650,0.000,0.000,0.000,0.000,-0.002,0.015,-0.000,0.001,317.000,0.744
1574412542.340,0.005,-0.001,-0.024,-0.000,0.000,0.000,0.000,0.001,0.001,187.000,219.000,192.000,165.000,187.000,219.000,192.000,165.000,1.870,2.190,1.920,1.650,0.000,0.000,0.000,0.000,-0.002,0.015,-0.000,0.001,317.000,0.740
1574412542.358,0.006,-0.000,-0.024,-0.000,0.000,0.000,0.000,0.001,0.001,187.000,219.000,192.000,165.000,187.000,219.000,192.000,165.000,1.870,2.190,1.920,1.650,0.000,0.000,0.000,0.000,-0.002,0.015,-0.000,0.001,317.000,0.740
1574412542.383,0.007,0.000,-0.025,-0.000,0.000,0.000,0.000,0.001,0.001,187.000,219.000,192.000,165.000,187.000,219.000,192.000,165.000,1.870,2.190,1.920,1.650,0.000,0.000,0.000,0.000,-0.002,0.015,-0.000,0.001,317.000,0.740
1574412542.404,0.008,0.001,-0.025,-0.000,0.000,0.000,0.000,0.001,0.001,187.000,219.000,192.000,165.000,187.000,219.000,192.000,165.000,1.870,2.190,1.920,1.650,0.000,0.000,0.000,0.000,-0.002,0.014,-0.000,0.001,317.000,0.740
1574412542.418,0.009,0.001,-0.025,-0.000,0.000,0.000,0.000,0.001,0.001,187.000,219.000,192.000,165.000,187.000,219.000,192.000,165.000,1.870,2.190,1.920,1.650,0.000,0.000,0.000,0.000,-0.002,0.014,-0.000,0.001,317.000,0.740
1574412542.432,0.008,0.002,-0.025,-0.000,0.000,0.000,0.000,-0.000,0.001,188.000,219.000,196.000,163.000,187.000,219.000,192.000,165.000,1.880,2.190,1.960,1.630,1.000,0.000,4.000,2.000,-0.002,0.014,-0.000,0.001,317.000,0.742
1574412542.448,0.008,0.002,-0.022,-0.000,0.000,0.000,0.000,-0.000,0.001,188.000,219.000,196.000,163.000,188.000,219.000,196.000,163.000,1.880,2.190,1.960,1.630,0.000,0.000,0.000,0.000,-0.002,0.014,-0.000,0.001,317.000,0.751
1574412542.465,0.008,0.002,-0.020,-0.000,0.000,0.000,0.000,-0.000,0.001,188.000,219.000,196.000,163.000,188.000,219.000,196.000,163.000,1.880,2.190,1.960,1.630,0.000,0.000,0.000,0.000,-0.002,0.013,-0.000,0.001,317.000,0.748
1574412542.482,0.007,0.003,-0.018,-0.000,0.000,0.000,0.000,-0.000,0.001,188.000,219.000,196.000,163.000,188.000,219.000,196.000,163.000,1.880,2.190,1.960,1.630,0.000,0.000,0.000,0.000,-0.002,0.013,-0.000,0.001,317.000,0.748
1574412542.501,0.007,0.003,-0.016,-0.000,0.000,0.000,0.000,-0.000,0.001,188.000,219.000,196.000,163.000,188.000,219.000,196.000,163.000,1.880,2.190,1.960,1.630,0.000,0.000,0.000,0.000,-0.002,0.012,-0.000,0.001,317.000,0.748
1574412542.517,0.006,0.003,-0.014,-0.000,0.000,0.000,0.000,-0.001,-0.001,187.000,222.000,195.000,161.000,188.000,219.000,196.000,163.000,1.870,2.220,1.950,1.610,1.000,3.000,1.000,2.000,-0.002,0.011,-0.000,0.001,317.000,0.753
1574412542.535,0.005,0.002,-0.012,-0.000,0.000,0.000,0.000,-0.001,-0.001,187.000,222.000,195.000,161.000,187.000,222.000,195.000,161.000,1.870,2.220,1.950,1.610,0.000,0.000,0.000,0.000,-0.002,0.011,-0.000,0.001,317.000,0.753
1574412542.552,0.005,0.002,-0.014,-0.000,0.000,0.000,0.000,-0.000,0.000,184.000,219.000,191.000,163.000,187.000,222.000,195.000,161.000,1.840,2.190,1.910,1.630,3.000,3.000,4.000,2.000,-0.001,0.011,-0.000,0.001,317.000,0.738
1574412542.569,0.005,0.003,-0.017,-0.000,0.000,0.000,0.000,0.000,0.000,184.000,219.000,191.000,163.000,184.000,219.000,191.000,163.000,1.840,2.190,1.910,1.630,0.000,0.000,0.000,0.000,-0.001,0.012,-0.000,0.001,317.000,0.738
1574412542.587,0.006,0.003,-0.013,-0.000,0.000,0.000,0.000,0.001,0.001,184.000,219.000,191.000,163.000,184.000,219.000,191.000,163.000,1.840,2.190,1.910,1.630,0.000,0.000,0.000,0.000,-0.001,0.013,-0.000,0.001,317.000,0.760
1574412542.609,0.006,0.003,-0.009,-0.000,0.000,0.000,0.000,0.001,0.001,184.000,219.000,191.000,163.000,184.000,219.000,191.000,163.000,1.840,2.190,1.910,1.630,0.000,0.000,0.000,0.000,-0.001,0.013,-0.000,0.001,317.000,0.760
1574412542.629,0.007,0.004,-0.006,-0.000,0.000,0.000,0.000,0.000,0.000,184.000,219.000,191.000,163.000,184.000,219.000,191.000,163.000,1.840,2.190,1.910,1.630,0.000,0.000,0.000,0.000,-0.002,0.014,-0.000,0.001,317.000,0.760
1574412542.647,0.007,0.004,-0.004,-0.000,0.000,0.000,0.000,0.000,0.001,184.000,219.000,191.000,163.000,184.000,219.000,191.000,163.000,1.840,2.190,1.910,1.630,0.000,0.000,0.000,0.000,-0.002,0.014,-0.000,0.001,317.000,0.760
1574412542.664,0.007,0.004,-0.002,-0.000,0.000,0.000,0.000,0.000,0.000,184.000,219.000,191.000,163.000,184.000,219.000,191.000,163.000,1.840,2.190,1.910,1.630,0.000,0.000,0.000,0.000,-0.002,0.014,-0.000,0.001,317.000,0.760
1574412542.681,0.008,0.005,-0.004,-0.000,0.000,0.000,0.000,0.000,0.000,184.000,219.000,191.000,163.000,184.000,219.000,191.000,163.000,1.840,2.190,1.910,1.630,0.000,0.000,0.000,0.000,-0.002,0.014,-0.000,0.001,317.000,0.746
1574412542.699,0.008,0.005,-0.005,-0.000,0.000,0.000,0.000,0.000,0.000,184.000,219.000,191.000,163.000,184.000,219.000,191.000,163.000,1.840,2.190,1.910,1.630,0.000,0.000,0.000,0.000,-0.003,0.014,-0.000,0.001,317.000,0.750
1574412542.715,0.008,0.005,-0.006,-0.000,0.000,0.000,0.000,0.000,0.000,184.000,219.000,191.000,163.000,184.000,219.000,191.000,163.000,1.840,2.190,1.910,1.630,0.000,0.000,0.000,0.000,-0.003,0.014,-0.000,0.001,317.000,0.753
1574412542.733,0.009,0.005,-0.006,-0.000,0.000,0.000,0.000,0.000,0.000,184.000,219.000,191.000,163.000,184.000,219.000,191.000,163.000,1.840,2.190,1.910,1.630,0.000,0.000,0.000,0.000,-0.004,0.014,-0.000,0.001,317.000,0.753
1574412542.749,0.009,0.005,-0.006,-0.000,0.000,0.000,0.000,0.000,0.000,184.000,219.000,191.000,163.000,184.000,219.000,191.000,163.000,1.840,2.190,1.910,1.630,0.000,0.000,0.000,0.000,-0.004,0.014,-0.000,0.001,317.000,0.756
1574412542.766,0.009,0.006,-0.005,-0.000,0.000,0.000,0.000,0.000,0.000,184.000,219.000,191.000,163.000,184.000,219.000,191.000,163.000,1.840,2.190,1.910,1.630,0.000,0.000,0.000,0.000,-0.004,0.014,-0.000,0.001,317.000,0.756
1574412542.785,0.008,0.004,-0.004,-0.000,0.000,0.000,0.000,-0.001,-0.001,190.000,219.000,196.000,158.000,184.000,219.000,191.000,163.000,1.900,2.190,1.960,1.580,6.000,0.000,5.000,5.000,-0.004,0.013,-0.000,0.001,317.000,0.759
1574412542.801,0.007,0.003,-0.003,-0.000,0.000,0.000,0.000,-0.001,-0.002,190.000,219.000,196.000,158.000,190.000,219.000,196.000,158.000,1.900,2.190,1.960,1.580,0.000,0.000,0.000,0.000,-0.003,0.013,-0.000,0.001,317.000,0.759
1574412542.818,0.007,0.002,-0.002,-0.000,0.000,0.000,0.000,-0.001,-0.002,190.000,219.000,196.000,158.000,190.000,219.000,196.000,158.000,1.900,2.190,1.960,1.580,0.000,0.000,0.000,0.000,-0.003,0.013,-0.000,0.001,317.000,0.759
1574412542.837,0.007,0.002,-0.003,-0.000,0.000,0.000,0.000,-0.000,-0.001,188.000,220.000,193.000,163.000,190.000,219.000,196.000,158.000,1.880,2.200,1.930,1.630,2.000,1.000,3.000,5.000,-0.002,0.014,-0.000,0.001,317.000,0.753
1574412542.856,0.007,0.001,-0.003,-0.000,0.000,0.000,0.000,0.000,-0.001,188.000,220.000,193.000,163.000,188.000,220.000,193.000,163.000,1.880,2.200,1.930,1.630,0.000,0.000,0.000,0.000,-0.001,0.014,-0.000,0.001,317.000,0.753
1574412542.873,0.007,0.001,-0.004,-0.000,0.000,0.000,0.000,0.000,-0.000,188.000,220.000,193.000,163.000,188.000,220.000,193.000,163.000,1.880,2.200,1.930,1.630,0.000,0.000,0.000,0.000,-0.001,0.013,-0.000,0.001,317.000,0.753
1574412542.895,0.007,0.001,-0.005,-0.000,0.000,0.000,0.000,0.000,-0.000,188.000,220.000,193.000,163.000,188.000,220.000,193.000,163.000,1.880,2.200,1.930,1.630,0.000,0.000,0.000,0.000,-0.001,0.013,-0.000,0.001,317.000,0.753
1574412542.908,0.007,0.001,-0.006,-0.000,0.000,0.000,0.000,0.000,-0.000,188.000,220.000,193.000,163.000,188.000,220.000,193.000,163.000,1.880,2.200,1.930,1.630,0.000,0.000,0.000,0.000,-0.001,0.012,-0.000,0.001,317.000,0.753
1574412542.925,0.008,0.000,-0.004,-0.000,0.000,0.000,0.000,0.000,-0.000,188.000,220.000,193.000,163.000,188.000,220.000,193.000,163.000,1.880,2.200,1.930,1.630,0.000,0.000,0.000,0.000,-0.001,0.012,-0.000,0.001,317.000,0.760
1574412542.942,0.008,0.000,-0.003,-0.000,0.000,0.000,0.000,0.000,-0.000,188.000,220.000,193.000,163.000,188.000,220.000,193.000,163.000,1.880,2.200,1.930,1.630,0.000,0.000,0.000,0.000,-0.002,0.013,-0.000,0.001,317.000,0.760
1574412542.958,0.008,-0.000,-0.004,-0.000,0.000,0.000,0.000,0.000,-0.000,188.000,220.000,193.000,163.000,188.000,220.000,193.000,163.000,1.880,2.200,1.930,1.630,0.000,0.000,0.000,0.000,-0.002,0.013,-0.000,0.001,317.000,0.753
1574412542.976,0.008,-0.000,-0.005,-0.000,0.000,0.000,0.000,0.000,-0.000,188.000,220.000,193.000,163.000,188.000,220.000,193.000,163.000,1.880,2.200,1.930,1.630,0.000,0.000,0.000,0.000,-0.002,0.013,-0.000,0.001,317.000,0.753
1574412542.993,0.008,-0.000,-0.002,-0.000,0.000,0.000,0.000,0.000,-0.000,188.000,220.000,193.000,163.000,188.000,220.000,193.000,163.000,1.880,2.200,1.930,1.630,0.000,0.000,0.000,0.000,-0.002,0.014,-0.000,0.001,317.000,0.766
1574412543.010,0.008,-0.001,0.001,-0.000,0.000,0.000,0.000,0.000,-0.000,188.000,220.000,193.000,163.000,188.000,220.000,193.000,163.000,1.880,2.200,1.930,1.630,0.000,0.000,0.000,0.000,-0.001,0.014,-0.000,0.001,317.000,0.766
1574412543.028,0.007,-0.001,-0.001,-0.000,0.000,0.000,0.000,-0.001,-0.001,190.000,218.000,198.000,158.000,188.000,220.000,193.000,163.000,1.900,2.180,1.980,1.580,2.000,2.000,5.000,5.000,-0.000,0.014,-0.000,0.001,317.000,0.752
1574412543.044,0.006,-0.001,-0.002,-0.000,0.000,0.000,0.000,-0.001,-0.001,190.000,218.000,198.000,158.000,190.000,218.000,198.000,158.000,1.900,2.180,1.980,1.580,0.000,0.000,0.000,0.000,0.001,0.015,-0.000,0.001,317.000,0.752
1574412543.063,0.005,-0.002,-0.004,-0.000,0.000,0.000,0.000,-0.001,-0.001,190.000,218.000,198.000,158.000,190.000,218.000,198.000,158.000,1.900,2.180,1.980,1.580,0.000,0.000,0.000,0.000,0.001,0.015,-0.000,0.001,317.000,0.752
1574412543.079,0.005,-0.002,-0.003,-0.000,0.000,0.000,0.000,-0.000,-0.001,188.000,218.000,193.000,159.000,190.000,218.000,198.000,158.000,1.880,2.180,1.930,1.590,2.000,0.000,5.000,1.000,0.001,0.015,-0.000,0.001,317.000,0.762
1574412543.099,0.005,-0.003,-0.002,-0.000,0.000,0.000,0.000,0.000,-0.001,188.000,218.000,193.000,159.000,188.000,218.000,193.000,159.000,1.880,2.180,1.930,1.590,0.000,0.000,0.000,0.000,0.000,0.015,-0.000,0.001,317.000,0.762
1574412543.119,0.005,-0.003,-0.001,-0.000,0.000,0.000,0.000,0.000,-0.001,188.000,218.000,193.000,159.000,188.000,218.000,193.000,159.000,1.880,2.180,1.930,1.590,0.000,0.000,0.000,0.000,-0.001,0.014,-0.000,0.001,317.000,0.762
1574412543.142,0.005,-0.004,0.000,-0.000,0.000,0.000,0.000,-0.000,-0.001,188.000,218.000,193.000,159.000,188.000,218.000,193.000,159.000,1.880,2.180,1.930,1.590,0.000,0.000,0.000,0.000,-0.002,0.014,-0.000,0.001,317.000,0.758
1574412543.152,0.005,-0.004,-0.005,-0.000,0.000,0.000,0.000,0.000,-0.000,188.000,218.000,193.000,159.000,188.000,218.000,193.000,159.000,1.880,2.180,1.930,1.590,0.000,0.000,0.000,0.000,-0.004,0.014,-0.000,0.001,317.000,0.740
1574412543.169,0.005,-0.004,-0.010,-0.000,0.000,0.000,0.000,0.000,-0.000,188.000,218.000,193.000,159.000,188.000,218.000,193.000,159.000,1.880,2.180,1.930,1.590,0.000,0.000,0.000,0.000,-0.004,0.015,-0.000,0.001,317.000,0.740
1574412543.188,0.006,-0.005,-0.014,-0.000,0.000,0.000,0.000,0.000,-0.000,188.000,218.000,193.000,159.000,188.000,218.000,193.000,159.000,1.880,2.180,1.930,1.590,0.000,0.000,0.000,0.000,-0.003,0.015,-0.000,0.001,317.000,0.740
1574412543.204,0.006,-0.005,-0.016,-0.000,0.000,0.000,0.000,0.000,-0.001,188.000,218.000,193.000,159.000,188.000,218.000,193.000,159.000,1.880,2.180,1.930,1.590,0.000,0.000,0.000,0.000,-0.002,0.016,-0.000,0.001,317.000,0.749
1574412543.222,0.006,-0.005,-0.016,-0.000,0.000,0.000,0.000,0.000,-0.001,188.000,218.000,193.000,159.000,188.000,218.000,193.000,159.000,1.880,2.180,1.930,1.590,0.000,0.000,0.000,0.000,-0.000,0.015,-0.000,0.001,317.000,0.749
1574412543.239,0.006,-0.006,-0.017,-0.000,0.000,0.000,0.000,0.000,-0.001,188.000,218.000,193.000,159.000,188.000,218.000,193.000,159.000,1.880,2.180,1.930,1.590,0.000,0.000,0.000,0.000,0.001,0.016,0.000,0.001,317.000,0.748
1574412543.256,0.006,-0.006,-0.018,-0.000,0.000,0.000,0.000,0.000,-0.001,188.000,218.000,193.000,159.000,188.000,218.000,193.000,159.000,1.880,2.180,1.930,1.590,0.000,0.000,0.000,0.000,0.001,0.016,0.000,0.001,317.000,0.748
1574412543.273,0.006,-0.006,-0.013,-0.000,0.000,0.000,0.000,0.000,-0.001,188.000,218.000,193.000,159.000,188.000,218.000,193.000,159.000,1.880,2.180,1.930,1.590,0.000,0.000,0.000,0.000,0.002,0.016,0.000,0.001,317.000,0.765
1574412543.290,0.006,-0.007,-0.009,-0.000,0.000,0.000,0.000,0.000,-0.000,188.000,218.000,193.000,159.000,188.000,218.000,193.000,159.000,1.880,2.180,1.930,1.590,0.000,0.000,0.000,0.000,0.002,0.015,0.000,0.001,317.000,0.765
1574412543.309,0.006,-0.007,-0.006,-0.000,0.000,0.000,0.000,-0.000,-0.000,188.000,218.000,193.000,159.000,188.000,218.000,193.000,159.000,1.880,2.180,1.930,1.590,0.000,0.000,0.000,0.000,0.003,0.014,0.000,0.001,317.000,0.765
1574412543.329,0.006,-0.007,-0.005,-0.000,0.000,0.000,0.000,-0.000,-0.000,188.000,218.000,193.000,159.000,188.000,218.000,193.000,159.000,1.880,2.180,1.930,1.590,0.000,0.000,0.000,0.000,0.005,0.014,0.000,0.001,317.000,0.754
1574412543.347,0.006,-0.007,-0.005,-0.000,0.000,0.000,0.000,-0.000,-0.000,188.000,218.000,193.000,159.000,188.000,218.000,193.000,159.000,1.880,2.180,1.930,1.590,0.000,0.000,0.000,0.000,0.006,0.014,0.000,0.001,317.000,0.754
1574412543.370,0.006,-0.007,-0.006,-0.000,0.000,0.000,0.000,-0.000,-0.000,188.000,218.000,193.000,159.000,188.000,218.000,193.000,159.000,1.880,2.180,1.930,1.590,0.000,0.000,0.000,0.000,0.006,0.013,0.000,0.002,317.000,0.754
1574412543.385,0.006,-0.008,-0.006,-0.000,0.000,0.000,0.000,-0.000,-0.000,188.000,218.000,193.000,159.000,188.000,218.000,193.000,159.000,1.880,2.180,1.930,1.590,0.000,0.000,0.000,0.000,0.006,0.013,0.000,0.002,317.000,0.754
1574412543.399,0.005,-0.007,-0.009,-0.000,0.000,0.000,0.000,-0.001,0.001,185.000,221.000,195.000,161.000,188.000,218.000,193.000,159.000,1.850,2.210,1.950,1.610,3.000,3.000,2.000,2.000,0.007,0.013,0.000,0.002,317.000,0.742
1574412543.415,0.004,-0.006,-0.010,-0.000,0.000,0.000,0.000,-0.001,0.001,185.000,221.000,195.000,161.000,185.000,221.000,195.000,161.000,1.850,2.210,1.950,1.610,0.000,0.000,0.000,0.000,0.007,0.013,0.000,0.002,317.000,0.751
